"Kode","Stednavn","region","big_category_code","big_category","small_category_code","small_category","west_of_Helsingør","decLatitude","decLongitude","Modern_Country","Modern_name","Province","Remark","Zoom"
"000000","Unknown",,"15","Unknown","37","Unindentifiable Ports","false","0.00000000","0.00000000","Unknown","Unknown","Unknown",,"11"
"000001",,,"15","Unknown","37","Unindentifiable Ports","false","0.00000000","0.00000000","Unknown","Torebeck","Unknown","Komt in vele vormen voor was omg. Malmö","11"
"000002",,,"15","Unknown","37","Unindentifiable Ports","false","0.00000000","0.00000000","Unknown","De Meer","Unknown",,"11"
"000003",,,"15","Unknown","37","Unindentifiable Ports","false","0.00000000","0.00000000","Unknown","vrij","Unknown",,"11"
"000004",,,"15","Unknown","37","Unindentifiable Ports","false","0.00000000","0.00000000","Unknown","vrij","Unknown",,"11"
"000005",,,"15","Unknown","37","Unindentifiable Ports","false","0.00000000","0.00000000","Unknown","Granspans","Unknown","diverse varianten: Schotland?","11"
"000006",,,"15","Unknown","37","Unindentifiable Ports","false","0.00000000","0.00000000","Unknown",,"Unknown",,"11"
"000007",,,"15","Unknown","37","Unindentifiable Ports","false","0.00000000","0.00000000","Unknown",,"Unknown",,"11"
"000008",,,"15","Unknown","37","Unindentifiable Ports","false","0.00000000","0.00000000","Unknown","Lemburg","Unknown","Lembricht etc.","11"
"000009",,,"15","Unknown","37","Unindentifiable Ports","false","0.00000000","0.00000000","Unknown",,"Unknown",,"11"
"001AAR","Aars","Danmark","14","Skagerrak, Kattegat (Denmark, Sweden)","1","Denmark","true","56.80388800","9.51416600","Denmark","Aars","North Jutland",,"11"
"001ALS","Ålsgårde","Danmark","14","Skagerrak, Kattegat (Denmark, Sweden)","1","Denmark","true","56.07555500","12.53972200","Denmark","Ålsgårde","Capital Region",,"11"
"001DRO","Dronningmølle","Danmark","14","Skagerrak, Kattegat (Denmark, Sweden)","1","Denmark","true","56.09472200","12.38500000","Denmark","Dronningmølle","Capital Region",,"11"
"001ESP","Espergærde","Danmark","1","The Baltic","1","Denmark","false","56.00000000","12.56666600","Denmark","Espergærde","Capital Region",,"11"
"001GIL","Gilleleje","Danmark","14","Skagerrak, Kattegat (Denmark, Sweden)","1","Denmark","true","56.12194400","12.31055500","Denmark","Gilleleje","Capital Region",,"11"
"001GKA","Gamle Kalkbrænderi","Danmark","1","The Baltic","1","Denmark","false","55.70460000","12.59010000","Denmark","Østerbro","Capital Region","See: http://vaeggen.copenhagen.dk/media/13693","11"
"001KOE","København","Danmark","1","The Baltic","1","Denmark","false","55.67750000","12.57083300","Denmark","København","Capital Region",,"11"
"001MUL","Mullerup","Danmark","14","Skagerrak, Kattegat (Denmark, Sweden)","1","Denmark","true","55.49166600","11.20000000","Denmark","Mullerup","Zealand",,"11"
"001OLS","Ølstad","Danmark","14","Skagerrak, Kattegat (Denmark, Sweden)","1","Denmark","true","55.92100000","12.06440000","Denmark","Ølsted","Capital Region",,"11"
"001SNE","Snekkersten","Danmark","1","The Baltic","1","Denmark","false","56.00888800","12.58583300","Denmark","Snekkersten","Capital Region",,"11"
"001SYD","Sydstranden","Danmark","1","The Baltic","1","Denmark","false","55.58416600","12.64888800","Denmark","Sydstranden","Capital Region",,"11"
"010BJO","Bjørnø","Danmark","1","The Baltic","1","Denmark","false","55.06305500","10.24805500","Denmark","Bjørnø","South Denmark",,"11"
"010BOD","Boderne","Danmark","14","Skagerrak, Kattegat (Denmark, Sweden)","1","Denmark","true","56.07916600","12.53444400","Denmark","Boderne","Capital Region",,"11"
"010LIM","Limfjorden","Danmark","14","Skagerrak, Kattegat (Denmark, Sweden)","1","Denmark","true","56.91666600","9.16666600","Denmark","Limfjorden","North Jutland",,"11"
"011DRA","Dragør","Danmark","1","The Baltic","1","Denmark","false","55.59444400","12.66611100","Denmark","Dragør","Capital Region",,"11"
"011DRE","Dragsminde","Danmark","1","The Baltic","1","Denmark","false","54.67833300","11.30861100","Denmark","Dragsminde","Zealand",,"11"
"011SAL","Saltholm","Danmark","1","The Baltic","1","Denmark","false","55.63944400","12.76416600","Denmark","Saltholm","Capital Region",,"11"
"011TOL","Tollerød","Danmark","1","The Baltic","1","Denmark","false","55.35166600","12.04611100","Denmark","Tollerød","Zealand",,"11"
"012FAX","Faxe","Danmark","1","The Baltic","1","Denmark","false","55.25090000","12.11210000","Denmark","Fakse","Zealand",,"11"
"012GRA","Grådyb","Danmark","2","North Sea (German/Danish coast)","1","Denmark","true","55.47166600","8.34611100","Denmark","Grådyb","South Denmark",,"11"
"012HAS","Hastrup","Danmark","1","The Baltic","1","Denmark","false","55.44130000","12.16930000","Denmark","Hastrup","Zealand",,"11"
"012KOG","Køge","Danmark","1","The Baltic","1","Denmark","false","55.45777700","12.18194400","Denmark","Køge","Zealand",,"11"
"012STM","Strandmøllen","Danmark","1","The Baltic","1","Denmark","false","55.80638800","12.58166600","Denmark","Strandmøllen","Capital Region",,"11"
"013FRE","Fredensborg","Danmark","1","The Baltic","1","Denmark","false","55.96547400","12.38452300","Denmark","Fredensborg","Capital Region",,"11"
"013HEA","Helsingør","Danmark","1","The Baltic","1","Denmark","false","56.03333300","12.61666600","Denmark","Helsingør","Capital Region",,"11"
"013HOR","Hornbeek","Danmark","14","Skagerrak, Kattegat (Denmark, Sweden)","1","Denmark","true","56.09130000","12.45710000","Denmark","Hornbæk","Capital Region",,"11"
"013HUN","Hundested","Danmark","14","Skagerrak, Kattegat (Denmark, Sweden)","1","Denmark","true","55.97000000","11.84700000","Denmark","Hundested","Capital Region",,"11"
"013LYN","Lynæs","Danmark","14","Skagerrak, Kattegat (Denmark, Sweden)","1","Denmark","true","55.94784400","11.85477500","Denmark","Lynæs","Capital Region",,"11"
"013TIS","Tisvilde","Danmark","14","Skagerrak, Kattegat (Denmark, Sweden)","1","Denmark","true","56.06155000","12.08774400","Denmark","Tisvilde","Capital Region",,"11"
"013WEJ","Wejby","Danmark","14","Skagerrak, Kattegat (Denmark, Sweden)","1","Denmark","true","56.06388800","12.14166600","Denmark","Vejby (DK)","Capital Region",,"11"
"014TRO","Troense","Danmark","1","The Baltic","1","Denmark","false","55.03305500","10.64361100","Denmark","Troense","South Denmark",,"11"
"015AMA","Amager","Danmark","1","The Baltic","1","Denmark","false","55.61666600","12.61666600","Denmark","Amager","Capital Region",,"11"
"015BAG","Baagø","Danmark","1","The Baltic","1","Denmark","false","55.30000000","9.81666600","Denmark","Bågø","South Denmark",,"11"
"015GAB","Gaabense","Danmark","1","The Baltic","1","Denmark","false","54.94250000","11.87361100","Denmark","Gåbense","Zealand",,"11"
"015GUL","Guldborg","Danmark","1","The Baltic","1","Denmark","false","54.86666600","11.75000000","Denmark","Guldborg","Zealand",,"11"
"015HOJ","Højby","Danmark","14","Skagerrak, Kattegat (Denmark, Sweden)","1","Denmark","true","55.91138800","11.59750000","Denmark","Højby","Zealand",,"11"
"015HUM","Humlebæk","Danmark","1","The Baltic","1","Denmark","false","55.96166600","12.53388800","Denmark","Humlebæk","Capital Region",,"11"
"015KAS","Kastrup","Danmark","1","The Baltic","1","Denmark","false","55.60957900","12.60649900","Denmark","Kastrup","Capital Region",,"11"
"015KLI","Klitmøller","Danmark","2","North Sea (German/Danish coast)","1","Denmark","true","57.04055500","8.49138800","Denmark","Klitmøller","North Jutland",,"11"
"015KRH","Kristianshavn","Danmark","1","The Baltic","1","Denmark","false","55.68333300","12.58333300","Denmark","Christianshavn","Capital Region",,"11"
"015MON","Møn","Danmark","1","The Baltic","1","Denmark","false","55.00000000","12.33333300","Denmark","Møn","Zealand",,"11"
"015NIV","Nivå","Danmark","1","The Baltic","1","Denmark","false","55.93124000","12.51688900","Denmark","Nivå","Capital Region",,"11"
"015NOR","Nørre Sundby","Danmark","14","Skagerrak, Kattegat (Denmark, Sweden)","1","Denmark","true","57.06972200","9.90305500","Denmark","Nørresundby","North Jutland",,"11"
"015OEE","Øresund (dansk kyst)","Danmark","1","The Baltic","1","Denmark","false","55.83333300","12.66666600","Denmark","Øresund","Capital Region",,"11"
"015OKH","Okholm","Danmark","14","Skagerrak, Kattegat (Denmark, Sweden)","1","Denmark","true","57.06666600","9.58333300","Denmark","Oksholm","North Jutland",,"11"
"015ORO","Ourø","Danmark","14","Skagerrak, Kattegat (Denmark, Sweden)","1","Denmark","true","55.76666600","11.81666600","Denmark","Orø","Zealand",,"11"
"015PRA","Præstø","Danmark","1","The Baltic","1","Denmark","false","55.11666600","12.05000000","Denmark","Præstø","Zealand",,"11"
"015SEJ","Sejerø","Danmark","14","Skagerrak, Kattegat (Denmark, Sweden)","1","Denmark","true","55.88333300","11.15000000","Denmark","Sejerø","Zealand",,"11"
"015SKS","Skovshoved","Danmark","1","The Baltic","1","Denmark","false","55.76666600","12.60000000","Denmark","Skovshoved","Capital Region",,"11"
"015SLA","Slagelse","Danmark","14","Skagerrak, Kattegat (Denmark, Sweden)","1","Denmark","true","55.40250000","11.35444400","Denmark","Slagelse","Zealand",,"11"
"015SLP","Slangerup","Danmark","14","Skagerrak, Kattegat (Denmark, Sweden)","1","Denmark","true","55.85000000","12.18333300","Denmark","Slangerup","Capital Region",,"11"
"015STE","Stege","Danmark","1","The Baltic","1","Denmark","false","54.98333300","12.30000000","Denmark","Stege","Zealand",,"11"
"015STG","Storehedinge","Danmark","1","The Baltic","1","Denmark","false","55.30944400","12.38861100","Denmark","Store Heddinge","Zealand",,"11"
"015STS","Stevens Klint","Danmark","1","The Baltic","1","Denmark","false","55.27951800","12.44623600","Denmark","Stevns Klint","Zealand",,"11"
"015TBY","Tårnby","Danmark","1","The Baltic","1","Denmark","false","55.62505600","12.58794200","Denmark","Tårnby","Capital Region",,"11"
"015VAL","Vallø","Danmark","1","The Baltic","1","Denmark","false","55.40000000","12.25000000","Denmark","Valløby","Zealand",,"11"
"015VOR","Vordingborg","Danmark","1","The Baltic","1","Denmark","false","55.00777700","11.91055500","Denmark","Vordingborg","Zealand",,"11"
"016VIB","Viborg","Danmark","2","North Sea (German/Danish coast)","1","Denmark","true","56.45305500","9.40194400","Denmark","Viborg","Central Jutland",,"11"
"016VOR","Vor","Danmark","14","Skagerrak, Kattegat (Denmark, Sweden)","1","Denmark","true","56.51666600","10.26666600","Denmark","Voer","Central Jutland",,"11"
"017AAH","Aalholm","Danmark","1","The Baltic","1","Denmark","false","54.66534800","11.72309300","Denmark","Ålholm","Zealand",,"11"
"017BAD","Bandholm","Danmark","1","The Baltic","1","Denmark","false","54.83333300","11.48333300","Denmark","Bandholm","Zealand",,"11"
"017FAS","Falster","Danmark","1","The Baltic","1","Denmark","false","54.86220000","11.91090000","Denmark","Falster","Zealand","Island","9"
"017FEJ","Fejø","Danmark","1","The Baltic","1","Denmark","false","54.95000000","11.43333300","Denmark","Fejø","Zealand",,"11"
"017FEO","Femø","Danmark","1","The Baltic","1","Denmark","false","54.98000000","11.53000000","Denmark","Femø","Zealand",,"11"
"017GRS","Grønsund","Danmark","1","The Baltic","1","Denmark","false","54.88333300","12.13333300","Denmark","Grønsund","Zealand",,"11"
"017LOL","Lolland","Danmark","1","The Baltic","1","Denmark","false","54.80222200","11.29500000","Denmark","Lolland","Zealand",,"9"
"017MAK","Maribo","Danmark","1","The Baltic","1","Denmark","false","54.77638800","11.50000000","Denmark","Maribo","Zealand",,"11"
"017MOG","Møgeltønder","Danmark","2","North Sea (German/Danish coast)","1","Denmark","true","54.91666600","8.78333300","Denmark","Møgeltønder Kog","South Denmark",,"11"
"017NAK","Nakskov","Danmark","1","The Baltic","1","Denmark","false","54.83333300","11.15000000","Denmark","Nakskov","Zealand",,"11"
"017NYK","Nykøbing Falster","Danmark","1","The Baltic","1","Denmark","false","54.76888800","11.87416600","Denmark","Nykøbing Falster","Zealand","Op Lolland","11"
"017NYT","Nysted","Danmark","1","The Baltic","1","Denmark","false","54.66666600","11.75000000","Denmark","Nysted","Zealand",,"11"
"017ROE","Rødby","Danmark","1","The Baltic","1","Denmark","false","54.70000000","11.40000000","Denmark","Rødby","Zealand",,"11"
"017SAK","Sakskøbing","Danmark","1","The Baltic","1","Denmark","false","54.80000000","11.65000000","Denmark","Sakskøbing","Zealand",,"11"
"017SLE","Sletteren","Danmark","1","The Baltic","1","Denmark","false","54.94585900","11.46500100","Denmark","Sletteren","Zealand",,"11"
"017STU","Stubbekøbing","Danmark","1","The Baltic","1","Denmark","false","54.88861100","12.04083300","Denmark","Stubbekøbing","Zealand",,"11"
"017VES","Vestermark","Danmark","1","The Baltic","1","Denmark","false","54.89833300","11.64888800","Denmark","Vestermark","Zealand",,"11"
"018NAH","Nakkehoved","Danmark","14","Skagerrak, Kattegat (Denmark, Sweden)","1","Denmark","true","56.11333300","12.36194400","Denmark","Nakkehoved","Capital Region",,"11"
"018NAK","Nakke","Danmark","14","Skagerrak, Kattegat (Denmark, Sweden)","1","Denmark","true","55.92333300","11.73027700","Denmark","Nakke","Zealand",,"11"
"019ALL","Allinge","Danmark","1","The Baltic","1","Denmark","false","55.25000000","14.80222200","Denmark","Allinge","Capital Region",,"11"
"019ART","Ærtholmene","Danmark","1","The Baltic","1","Denmark","false","55.32060000","15.18900000","Denmark","Ertholmene","Capital Region",,"13"
"019BOA","Bornholm","Danmark","1","The Baltic","1","Denmark","false","55.10000000","15.00000000","Denmark","Bornholm","Capital Region","Island","9"
"019HAL","Halsted","Danmark","1","The Baltic","1","Denmark","false","54.85000000","11.23333300","Denmark","Halsted","Zealand",,"11"
"019HAS","Hasle","Danmark","1","The Baltic","1","Denmark","false","55.18333300","14.71666600","Denmark","Hasle","Capital Region",,"11"
"019HEL","Helnæs","Danmark","1","The Baltic","1","Denmark","false","55.13333300","10.03333300","Denmark","Helnæs By","South Denmark",,"11"
"019HER","Herridslev","Danmark","1","The Baltic","1","Denmark","false","54.70000000","11.68333300","Denmark","Herridslev","Zealand",,"11"
"019KAT","Kattegat","Danmark","14","Skagerrak, Kattegat (Denmark, Sweden)","1","Denmark","true","57.00000000","11.00000000","Denmark","Kattegat","Denmark",,"11"
"019KRO","Kristiansø","Danmark","1","The Baltic","1","Denmark","false","55.32055500","15.18694400","Denmark","Christiansø","Capital Region",,"11"
"019NEK","Neksø","Danmark","1","The Baltic","1","Denmark","false","55.06666600","15.13000000","Denmark","Nexø","Capital Region",,"11"
"019NSV","Nørre Sejerslev","Danmark","2","North Sea (German/Danish coast)","1","Denmark","true","55.01220100","8.73004600","Denmark","Nørre Sejerslev","South Denmark",,"11"
"019RIN","Rungsted","Danmark","1","The Baltic","1","Denmark","false","55.86916600","12.55138800","Denmark","Rungsted","Capital Region",,"11"
"019RON","Rønne","Danmark","1","The Baltic","1","Denmark","false","55.10000000","14.70000000","Denmark","Rønne","Capital Region",,"11"
"019SAV","Sandvig","Danmark","1","The Baltic","1","Denmark","false","55.28880000","14.77440000","Denmark","Sandvig","Capital Region",,"11"
"019SEJ","Sejerslev","Danmark","2","North Sea (German/Danish coast)","1","Denmark","true","56.92305500","8.86666600","Denmark","Sejerslev","North Jutland",,"11"
"019SVA","Svaneke","Danmark","1","The Baltic","1","Denmark","false","55.13555500","15.14138800","Denmark","Svaneke","Capital Region",,"11"
"019VEB","Vedbæk","Danmark","1","The Baltic","1","Denmark","false","55.85000000","12.56666600","Denmark","Vedbæk","Capital Region",,"11"
"020NOR","Nordby","Danmark","2","North Sea (German/Danish coast)","1","Denmark","true","55.44583300","8.39777700","Denmark","Nordby","South Denmark",,"11"
"020OBE","Øbjerg","Danmark","2","North Sea (German/Danish coast)","1","Denmark","true","55.13861100","8.92527700","Denmark","Øbjerg","South Denmark",,"11"
"021NOR","Nordholm","Danmark","14","Skagerrak, Kattegat (Denmark, Sweden)","1","Denmark","true","55.48472200","11.09000000","Denmark","Nordholm","Zealand",,"11"
"021RAS","Råstrup","Danmark","2","North Sea (German/Danish coast)","1","Denmark","true","56.93333300","8.53333300","Denmark","Råstrup","North Jutland",,"11"
"022FRU","Frederikssund","Danmark","14","Skagerrak, Kattegat (Denmark, Sweden)","1","Denmark","true","55.83944400","12.06888800","Denmark","Frederikssund","Capital Region",,"11"
"024FRK","Frederiksværk","Danmark","14","Skagerrak, Kattegat (Denmark, Sweden)","1","Denmark","true","55.97055500","12.02250000","Denmark","Frederiksværk","Capital Region",,"11"
"024HAH","Hammermøllen","Danmark","14","Skagerrak, Kattegat (Denmark, Sweden)","1","Denmark","true","56.06666600","12.56666600","Denmark","Hellebæk","Capital Region",,"11"
"024HOC","Holbæk","Danmark","14","Skagerrak, Kattegat (Denmark, Sweden)","1","Denmark","true","55.71666600","11.71666600","Denmark","Holbæk","Zealand",,"11"
"024HOL","Honsbergen","Danmark","2","North Sea (German/Danish coast)","1","Denmark","true","55.56666600","8.08333300","Denmark","Hornsbjerge","South Denmark",,"11"
"024ISS","Issefjord","Danmark","14","Skagerrak, Kattegat (Denmark, Sweden)","1","Denmark","true","55.86666600","11.81666600","Denmark","Isefjord","Zealand",,"11"
"024KRB","Kronborg Gevært","Danmark","1","The Baltic","1","Denmark","true","56.03861100","12.62138800","Denmark","Kronborg Castle","Capital Region",,"11"
"024LYN","Lyndby","Danmark","14","Skagerrak, Kattegat (Denmark, Sweden)","1","Denmark","true","55.66970000","11.93530000","Denmark","Lyndby","Zealand",,"11"
"024NES","Næsby","Danmark","14","Skagerrak, Kattegat (Denmark, Sweden)","1","Denmark","true","55.79290000","11.83980000","Denmark","Næsby","Zealand",,"11"
"024NYB","Nykøbing Sjælland","Danmark","14","Skagerrak, Kattegat (Denmark, Sweden)","1","Denmark","true","55.92472200","11.67083300","Denmark","Nykøbing Sjælland","Zealand","Gem. Odsherred","11"
"024ORO","Orø","Danmark","14","Skagerrak, Kattegat (Denmark, Sweden)","1","Denmark","true","55.77155500","11.81397000","Denmark","Orø","Zealand",,"11"
"024ROK","Roskilde","Danmark","14","Skagerrak, Kattegat (Denmark, Sweden)","1","Denmark","true","55.64138800","12.08027700","Denmark","Roskilde","Zealand",,"11"
"024ROR","Rørvig","Danmark","14","Skagerrak, Kattegat (Denmark, Sweden)","1","Denmark","true","55.95000000","11.76666600","Denmark","Rørvig","Zealand",,"11"
"027BOR","Borreby","Danmark","1","The Baltic","1","Denmark","false","55.23280000","11.29000000","Denmark","Borreby Castle","Zealand",,"11"
"027KAA","Karrebæksminde","Danmark","1","The Baltic","1","Denmark","false","55.18333300","11.66666600","Denmark","Karrebæksminde","Zealand",,"11"
"027KAU","Kalundborg","Danmark","14","Skagerrak, Kattegat (Denmark, Sweden)","1","Denmark","true","55.68333300","11.10000000","Denmark","Kalundborg","Zealand",,"11"
"027KOO","Korsør","Danmark","1","The Baltic","1","Denmark","false","55.32972200","11.13833300","Denmark","Korsør","Zealand",,"11"
"027NAE","Næstved","Danmark","1","The Baltic","1","Denmark","false","55.22972200","11.76083300","Denmark","Næstved","Zealand",,"11"
"027SJE","Selandt","Danmark","1","The Baltic","1","Denmark","false","55.49000000","11.76000000","Denmark","Sjælland","Zealand",,"9"
"027SKE","Skelskør","Danmark","1","The Baltic","1","Denmark","false","55.25000000","11.31666600","Denmark","Skælskør","Zealand",,"11"
"028SKT","Skøttrup","Danmark","14","Skagerrak, Kattegat (Denmark, Sweden)","1","Denmark","true","57.37277700","9.75972200","Denmark","Skøttrup","North Jutland",,"11"
"030THO","Thorup","Danmark","14","Skagerrak, Kattegat (Denmark, Sweden)","1","Denmark","true","57.00527700","9.23944400","Danmark","Thorup","North Jutland",,"11"
"031GIS","Gisløf","Danmark","1","The Baltic","1","Denmark","false","55.21410000","10.59730000","Denmark","Gislev","South Denmark",,"11"
"031KER","Kartemunde","Danmark","14","Skagerrak, Kattegat (Denmark, Sweden)","1","Denmark","true","55.45304000","10.66094000","Denmark","Kerteminde","South Denmark",,"11"
"031ODE","Odense","Danmark","14","Skagerrak, Kattegat (Denmark, Sweden)","1","Denmark","true","55.39583300","10.38805500","Denmark","Odense","South Denmark",,"11"
"032LAG","Langeland","Danmark","1","The Baltic","1","Denmark","false","55.00000000","10.83333300","Denmark","Langeland","South Denmark","Island","10"
"032RUD","Rudkøbing","Danmark","1","The Baltic","1","Denmark","false","54.93638800","10.71000000","Denmark","Rudkøbing","South Denmark",,"11"
"039ASS","Assens","Danmark","1","The Baltic","1","Denmark","false","55.27000000","9.90055500","Denmark","Assens","South Denmark",,"11"
"039BGN","Bognæs","Danmark","14","Skagerrak, Kattegat (Denmark, Sweden)","1","Denmark","true","55.84222200","11.62472200","Denmark","Bognæs","Zealand",,"11"
"039BOG","Bogense","Danmark","14","Skagerrak, Kattegat (Denmark, Sweden)","1","Denmark","true","55.56666600","10.08861100","Denmark","Bogense","South Denmark",,"11"
"039EJD","Ejderstedt","Danmark","14","Skagerrak, Kattegat (Denmark, Sweden)","1","Denmark","true","57.30000000","9.68333300","Denmark","Ejersted","North Jutland",,"11"
"039FAA","Faaborg","Danmark","1","The Baltic","1","Denmark","false","55.09500000","10.24222200","Denmark","Fåborg","South Denmark",,"11"
"039MIE","Middelfart","Danmark","14","Skagerrak, Kattegat (Denmark, Sweden)","1","Denmark","true","55.50583300","9.73027700","Denmark","Middelfart","South Denmark",,"11"
"039NYB","Nyborg","Danmark","14","Skagerrak, Kattegat (Denmark, Sweden)","1","Denmark","true","55.31250000","10.78944400","Denmark","Nyborg","South Denmark",,"11"
"039SVN","Svendborg","Danmark","1","The Baltic","1","Denmark","false","55.05972200","10.60666600","Denmark","Svendborg","South Denmark",,"11"
"039TAS","Tåsinge","Danmark","1","The Baltic","1","Denmark","false","55.00000000","10.60000000","Denmark","Tåsinge","South Denmark",,"11"
"039TUR","Turø","Danmark","1","The Baltic","1","Denmark","false","55.05000000","10.66666600","Denmark","Thurø","South Denmark",,"11"
"040KJE","Kjelstrup","Danmark","2","North Sea (German/Danish coast)","1","Denmark","true","56.99388800","8.75305500","Denmark","Kjelstrup","North Jutland",,"11"
"040VOR","Vorupør","Danmark","2","North Sea (German/Danish coast)","1","Denmark","true","56.94888800","8.37555500","Denmark","Vorupør","North Jutland",,"11"
"041FLA","Fladstrand","Danmark","14","Skagerrak, Kattegat (Denmark, Sweden)","1","Denmark","true","57.44055500","10.53638800","Denmark","Frederikshavn","North Jutland",,"11"
"041FRS","Frederikshavn","Danmark","14","Skagerrak, Kattegat (Denmark, Sweden)","1","Denmark","false","57.44055500","10.53638800","Denmark","Frederikshavn","North Jutland",,"11"
"041HAA","Håre","Danmark","1","The Baltic","1","Denmark","false","55.37111100","9.90250000","Denmark","Håre","South Denmark",,"11"
"042DRO","Dronningborg","Danmark","14","Skagerrak, Kattegat (Denmark, Sweden)","1","Denmark","true","56.47628720","10.07210520","Denmark","Dronningborg","Central Jutland",,"11"
"042RAN","Randers","Danmark","14","Skagerrak, Kattegat (Denmark, Sweden)","1","Denmark","true","56.46666600","10.05000000","Denmark","Randers","Central Jutland",,"11"
"043AAR","Aarhus","Danmark","14","Skagerrak, Kattegat (Denmark, Sweden)","1","Denmark","true","56.15000000","10.21666600","Denmark","Århus","Central Jutland",,"11"
"043BLE","Blegind","Danmark","14","Skagerrak, Kattegat (Denmark, Sweden)","1","Denmark","true","56.06689320","10.06261020","Denmark","Blegind","Central Jutland",,"11"
"044HOS","Horsens","Danmark","14","Skagerrak, Kattegat (Denmark, Sweden)","1","Denmark","true","55.86055500","9.85027700","Denmark","Horsens","Central Jutland",,"11"
"044RAR","Rårup","Danmark","14","Skagerrak, Kattegat (Denmark, Sweden)","1","Denmark","true","55.77473220","9.92142320","Denmark","Rårup","Central Jutland",,"11"
"045VEJ","Vejle","Danmark","14","Skagerrak, Kattegat (Denmark, Sweden)","1","Denmark","true","55.70916600","9.53555500","Denmark","Vejle","South Denmark",,"11"
"046KOD","Kolding","Danmark","14","Skagerrak, Kattegat (Denmark, Sweden)","1","Denmark","true","55.49027700","9.47194400","Denmark","Kolding","South Denmark",,"11"
"046SOB","Søby","Danmark","2","North Sea (German/Danish coast)","1","Denmark","true","56.53083300","9.11277700","Denmark","Søby","Central Jutland",,"11"
"049AEB","Æbeltoft","Danmark","14","Skagerrak, Kattegat (Denmark, Sweden)","1","Denmark","true","56.19416600","10.68194400","Denmark","Ebeltoft","Central Jutland",,"11"
"049ANH","Anholt","Danmark","14","Skagerrak, Kattegat (Denmark, Sweden)","1","Denmark","true","56.70000000","11.55000000","Denmark","Anholt","Central Jutland",,"11"
"049BAN","Bangsbostrand","Danmark","14","Skagerrak, Kattegat (Denmark, Sweden)","1","Denmark","true","57.41861100","10.52194400","Denmark","Bangsbostrand","North Jutland",,"11"
"049FRD","Fredericia","Danmark","14","Skagerrak, Kattegat (Denmark, Sweden)","1","Denmark","true","55.56555500","9.75250000","Denmark","Fredericia","South Denmark",,"11"
"049GRD","Grenaa","Danmark","14","Skagerrak, Kattegat (Denmark, Sweden)","1","Denmark","true","56.41555500","10.87805500","Denmark","Grenå","Central Jutland",,"11"
"049HAL","Hals","Danmark","14","Skagerrak, Kattegat (Denmark, Sweden)","1","Denmark","true","57.00000000","10.31666600","Denmark","Hals","North Jutland",,"11"
"049HAS","Hadsund","Danmark","14","Skagerrak, Kattegat (Denmark, Sweden)","1","Denmark","true","56.71666600","10.11666600","Denmark","Hadsund","North Jutland",,"11"
"049HES","Hesselø","Danmark","14","Skagerrak, Kattegat (Denmark, Sweden)","1","Denmark","true","56.19630000","11.70560000","Denmark","Hesselø","Capital Region",,"11"
"049HIR","Hirtsholmene","Danmark","14","Skagerrak, Kattegat (Denmark, Sweden)","1","Denmark","true","57.49055500","10.61222200","Denmark","Hirsholmene","North Jutland",,"11"
"049HOB","Hobro","Danmark","14","Skagerrak, Kattegat (Denmark, Sweden)","1","Denmark","true","56.64305500","9.79027700","Denmark","Hobro","North Jutland",,"11"
"049KAO","Kalø","Danmark","14","Skagerrak, Kattegat (Denmark, Sweden)","1","Denmark","true","56.30000000","10.50000000","Denmark","Kalø","Central Jutland",,"11"
"049LAE","Læsø","Danmark","14","Skagerrak, Kattegat (Denmark, Sweden)","1","Denmark","true","57.26094000","10.99555700","Denmark","Læsø","North Jutland",,"11"
"049MAF","Koningsdal","Danmark","14","Skagerrak, Kattegat (Denmark, Sweden)","1","Denmark","true","56.68402700","10.02611700","Denmark","Mariager Fjord","North Jutland",,"10"
"049MAI","Mariager","Danmark","14","Skagerrak, Kattegat (Denmark, Sweden)","1","Denmark","true","56.65181200","9.98045500","Denmark","Mariager","North Jutland",,"11"
"049MOR","Mors","Danmark","2","North Sea (German/Danish coast)","1","Denmark","true","56.83333300","8.75000000","Denmark","Mors","North Jutland","Island","11"
"049SAE","Sæby","Danmark","14","Skagerrak, Kattegat (Denmark, Sweden)","1","Denmark","true","57.33333300","10.53333300","Denmark","Sæby","North Jutland",,"11"
"049SAS","Samsø","Danmark","14","Skagerrak, Kattegat (Denmark, Sweden)","1","Denmark","true","55.83333300","10.58333300","Denmark","Samsø","Central Jutland",,"11"
"049SKG","Skagen","Danmark","14","Skagerrak, Kattegat (Denmark, Sweden)","1","Denmark","true","57.72083300","10.58388800","Denmark","Skagen","North Jutland",,"11"
"049STU","Studsgård","Danmark","2","North Sea (German/Danish coast)","1","Denmark","true","56.09000000","8.90777700","Denmark","Studsgård","Central Jutland",,"11"
"049TRU","Truust","Danmark","14","Skagerrak, Kattegat (Denmark, Sweden)","1","Denmark","true","56.28777700","9.67750000","Denmark","Truust","Central Jutland",,"11"
"050BOG","Bøgeskov","Danmark","14","Skagerrak, Kattegat (Denmark, Sweden)","1","Denmark","true","56.02277700","10.09500000","Denmark","Bøgeskov","Central Jutland",,"11"
"050HAR","Harboøre","Danmark","2","North Sea (German/Danish coast)","1","Denmark","true","56.61750000","8.18055500","Denmark","Harboøre","Central Jutland",,"11"
"050HOL","Holstebro","Danmark","2","North Sea (German/Danish coast)","1","Denmark","true","56.36000000","8.61583300","Denmark","Holstebro","Central Jutland",,"11"
"051AAL","Aalborg","Danmark","14","Skagerrak, Kattegat (Denmark, Sweden)","1","Denmark","true","57.04777700","9.91861100","Denmark","Aalborg","North Jutland",,"11"
"051FER","Ferslev","Danmark","14","Skagerrak, Kattegat (Denmark, Sweden)","1","Denmark","true","56.95265320","9.88737620","Denmark","Ferslev","North Jutland",,"11"
"051GAS","Gaaser","Danmark","14","Skagerrak, Kattegat (Denmark, Sweden)","1","Denmark","true","57.00623200","10.05037600","Denmark","Gåser","North Jutland",,"11"
"052AGG","Agger","Danmark","2","North Sea (German/Danish coast)","1","Denmark","true","56.77906100","8.25530600","Denmark","Agger","North Jutland",,"11"
"052FJE","Fjellerup","Danmark","14","Skagerrak, Kattegat (Denmark, Sweden)","1","Denmark","true","56.50000000","10.60000000","Denmark","Fjellerup","Central Jutland",,"11"
"052LEV","Lemvig","Danmark","2","North Sea (German/Danish coast)","1","Denmark","true","56.54833300","8.31000000","Denmark","Lemvig","Central Jutland",,"11"
"052LOE","Løgstør","Danmark","14","Skagerrak, Kattegat (Denmark, Sweden)","1","Denmark","true","56.96666600","9.25000000","Denmark","Løgstør","North Jutland",,"11"
"052NIB","Nibe","Danmark","14","Skagerrak, Kattegat (Denmark, Sweden)","1","Denmark","true","56.98333300","9.63333300","Denmark","Nibe","North Jutland",,"11"
"052NYO","Nykøbing Mors","Danmark","2","North Sea (German/Danish coast)","1","Denmark","true","56.79333300","8.85277700","Denmark","Nykøbing Mors","North Jutland",,"11"
"052SKV","Skive","Danmark","2","North Sea (German/Danish coast)","1","Denmark","true","56.56666600","9.03333300","Denmark","Skive","Central Jutland",,"11"
"052THI","Thisted","Danmark","2","North Sea (German/Danish coast)","1","Denmark","true","56.95500000","8.69472200","Denmark","Thisted","North Jutland",,"11"
"052ULB","Ulbjerg","Danmark","2","North Sea (German/Danish coast)","1","Denmark","true","56.62796620","9.33950320","Danmark","Ulbjerg","Central Jutland",,"11"
"052VES","Vestervig","Danmark","2","North Sea (German/Danish coast)","1","Denmark","true","56.76241400","8.31796200","Denmark","Vestervig","North Jutland",,"11"
"055BOR","Bording","Danmark","2","North Sea (German/Danish coast)","1","Denmark","true","56.16861100","9.24361100","Denmark","Bording Kirkeby","Central Jutland",,"11"
"055FAN","Fanø","Danmark","2","North Sea (German/Danish coast)","1","Denmark","true","55.41666600","8.41666600","Denmark","Fanø","South Denmark",,"11"
"055FJE","Fjerritslev","Danmark","14","Skagerrak, Kattegat (Denmark, Sweden)","1","Denmark","true","57.09025480","9.09228940","Denmark","Fjerritslev","North Jutland",,"11"
"055HJE","Hjerting","Danmark","2","North Sea (German/Danish coast)","1","Denmark","true","55.52611100","8.35777700","Denmark","Hjerting","South Denmark",,"11"
"055HJO","Hjørring","Danmark","14","Skagerrak, Kattegat (Denmark, Sweden)","1","Denmark","true","57.46416600","9.98222200","Denmark","Hjørring","North Jutland",,"11"
"055LOG","Løgten","Danmark","14","Skagerrak, Kattegat (Denmark, Sweden)","1","Denmark","true","56.28333300","10.40000000","Denmark","Løgten","Central Jutland",,"11"
"055RIB","Ribe","Danmark","2","North Sea (German/Danish coast)","1","Denmark","true","55.35000000","8.76666600","Denmark","Ribe","South Denmark",,"11"
"055RIK","Ringkøbing","Danmark","2","North Sea (German/Danish coast)","1","Denmark","true","56.09000000","8.24388800","Denmark","Ringkøbing","Central Jutland",,"11"
"055SOE","Sønderho","Danmark","2","North Sea (German/Danish coast)","1","Denmark","true","55.35000000","8.47500000","Denmark","Sønderho","South Denmark",,"11"
"055STR","Struer","Danmark","2","North Sea (German/Danish coast)","1","Denmark","true","56.49111100","8.58361100","Denmark","Struer","Central Jutland",,"11"
"055VAA","Varde","Danmark","2","North Sea (German/Danish coast)","1","Denmark","true","55.62111100","8.48055500","Denmark","Varde","South Denmark",,"11"
"059DAN","Danmark","Danmark","1","The Baltic","1","Denmark","false","56.00000000","10.00000000","Denmark","Denmark","Denmark",,"11"
"059JYL","Jylland","Jylland","2","North Sea (German/Danish coast)","1","Denmark","true","56.00000000","9.25000000","Denmark","Jutland","Denmark",,"11"
"059KYH","Kyholm","Jylland","14","Skagerrak, Kattegat (Denmark, Sweden)","1","Denmark","true","55.93250000","10.67194400","Denmark","Kyholm","Central Jutland",,"11"
"059LOE","Lønstrup","Jylland","14","Skagerrak, Kattegat (Denmark, Sweden)","1","Denmark","true","57.47344800","9.79689700","Denmark","Lønstrup","North Jutland",,"11"
"059LOG","Løgtebro","Danmark","2","North Sea (German/Danish coast)","1","Denmark","true","56.76666600","8.26666600","Denmark","Krik Havn","North Jutland",,"11"
"059LOK","Løkken","Jylland","14","Skagerrak, Kattegat (Denmark, Sweden)","1","Denmark","true","57.37027700","9.71444400","Denmark","Løkken","North Jutland",,"11"
"059VIS","Visby","Danmark","2","North Sea (German/Danish coast)","1","Denmark","true","56.79361100","8.45000000","Denmark","Visby (DK)","North Jutland",,"11"
"061FLS","Flensborg","Hertugdømmerne","1","The Baltic","1","Denmark","false","54.78333300","9.43333300","Germany","Flensburg","Schleswig-Holstein",,"11"
"061REH","Rehm","Hertugdømmerne","2","North Sea (German/Danish coast)","1","Denmark","true","54.30000000","9.03333300","Germany","Rehm","Schleswig-Holstein",,"11"
"061RON","Rønsheved","Danmark","1","The Baltic","1","Denmark","false","54.87333300","9.51861100","Denmark","Rønsheved","South Denmark",,"11"
"062SON","Sønderborg","Hertugdømmerne","1","The Baltic","1","Denmark","false","54.90916600","9.80722200","Denmark","Sønderborg","South Denmark",,"11"
"063AER","Ærø","Hertugdømmerne","1","The Baltic","1","Denmark","false","54.88333300","10.33333300","Denmark","Ærø","South Denmark",,"11"
"064AES","Ærøskøbing","Hertugdømmerne","1","The Baltic","1","Denmark","false","54.88333300","10.41666600","Denmark","Ærøskøbing","South Denmark",,"11"
"064MRT","Marstal","Hertugdømmerne","1","The Baltic","1","Denmark","false","54.85000000","10.51666600","Denmark","Marstal","South Denmark",,"11"
"064OMM","Ommel","Danmark","1","The Baltic","1","Denmark","false","54.87215720","10.47915220","Danmark","Ommel","South Denmark",,"11"
"065ALS","Als","Hertugdømmerne","14","Skagerrak, Kattegat (Denmark, Sweden)","1","Denmark","true","56.75000000","10.30000000","Denmark","Als","North Jutland",,"11"
"065BAR","Bargen","Hertugdømmerne","2","North Sea (German/Danish coast)","1","Denmark","true","54.29972200","9.27722200","Germany","Bargen","Schleswig-Holstein",,"11"
"065FRO","Frederiksort","Hertugdømmerne","1","The Baltic","1","Denmark","false","54.39444400","10.17416600","Germany","Frederiksort","Schleswig-Holstein",,"11"
"065HAD","Haderslev","Hertugdømmerne","1","The Baltic","1","Denmark","false","55.25361100","9.48972200","Denmark","Haderslev","South Denmark",,"11"
"065KAP","Kappeln","Hertugdømmerne","1","The Baltic","1","Denmark","false","54.66666600","9.93333300","Germany","Kappeln","Schleswig-Holstein",,"11"
"065NOR","Nordborg","Hertugdømmerne","1","The Baltic","1","Denmark","false","55.05000000","9.75000000","Denmark","Nordborg","South Denmark",,"11"
"067AAB","Aabenraa","Hertugdømmerne","1","The Baltic","1","Denmark","false","55.04416600","9.41722200","Denmark","Åbenrå","South Denmark",,"11"
"069ARS","Arnis","Hertugdømmerne","1","The Baltic","1","Denmark","false","54.63333300","9.91666600","Germany","Arnis","Schleswig-Holstein",,"11"
"069DAM","Dam","Hertugdømmerne","1","The Baltic","13","South Baltic: East Prussia to Lubeck","false","54.58280000","10.02540000","Germany","Damp","Schleswig-Holstein",,"11"
"069ECK","Eckernfoerde","Hertugdømmerne","1","The Baltic","1","Denmark","false","54.46666600","9.83333300","Germany","Eckernförde","Schleswig-Holstein",,"11"
"071HOL","Holtenau","Hertugdømmerne","1","The Baltic","2","Holstein","false","54.36666600","10.15000000","Germany","Holtenau","Schleswig-Holstein",,"11"
"071KIE","Kiel","Hertugdømmerne","1","The Baltic","2","Holstein","false","54.32111100","10.13472200","Germany","Kiel","Schleswig-Holstein",,"11"
"072BUR","Burg","Hertugdømmerne","1","The Baltic","2","Holstein","false","54.43950000","11.19750000","Germany","Burg","Schleswig-Holstein",,"11"
"072FEM","Femern","Hertugdømmerne","1","The Baltic","2","Holstein","false","54.46666600","11.13333300","Germany","Fehmarn","Schleswig-Holstein",,"11"
"072LEM","Lemkenhafen","Hertugdømmerne","1","The Baltic","2","Holstein","false","54.44630300","11.08967700","Germany","Lemkenhafen","Schleswig-Holstein","on Fehmarn","11"
"075NES","Neustadt","Hertugdømmerne","1","The Baltic","2","Holstein","false","54.10000000","10.81666600","Germany","Neustadt in Holstein","Schleswig-Holstein",,"11"
"079GRE","Gremersdorf","Hertugdømmerne","1","The Baltic","2","Holstein","false","54.33620000","10.92930000","Germany","Gremersdorf","Schleswig-Holstein",,"11"
"079HAF","Hafkrug","Hertugdømmerne","1","The Baltic","2","Holstein","false","54.05277700","10.74944400","Germany","Haffkrug","Schleswig-Holstein",,"11"
"079HEL","Heiligenhafen","Hertugdømmerne","1","The Baltic","2","Holstein","false","54.36666600","10.98333300","Germany","Heiligenhafen","Schleswig-Holstein",,"11"
"079LUT","Lutjenburg","Hertugdømmerne","1","The Baltic","2","Holstein","false","54.29166600","10.58944400","Germany","Lütjenburg","Schleswig-Holstein",,"11"
"079MAA","Maasholm","Hertugdømmerne","1","The Baltic","2","Holstein","false","54.68333300","9.98333300","Germany","Maasholm","Schleswig-Holstein",,"11"
"080BAR","Barsfleth","Holstein","2","North Sea (German/Danish coast)","2","Holstein","true","54.11305500","9.01361100","Germany","Barsfleth","Schleswig-Holstein",,"11"
"080ELM","Elmshorn","Holstein","2","North Sea (German/Danish coast)","2","Holstein","true","53.75388800","9.65333300","Germany","Elmshorn","Schleswig-Holstein",,"11"
"080NEU","Neuendorf","Holstein","2","North Sea (German/Danish coast)","2","Holstein","true","53.73186000","9.55102600","Germany","Neuendorf bei Elmshorn","Schleswig-Holstein",,"11"
"080WIS","Wisch","Hertugdømmerne","2","North Sea (German/Danish coast)","2","Holstein","true","54.85000000","8.68333300","Germany","Wisch","Schleswig-Holstein",,"11"
"081AMR","Amrum","Hertugdømmerne","2","North Sea (German/Danish coast)","2","Holstein","true","54.65000000","8.35000000","Germany","Amrum","Schleswig-Holstein",,"11"
"081BAU","Ballum","Hertugdømmerne","2","North Sea (German/Danish coast)","2","Holstein","true","55.08333300","8.66666600","Denmark","Ballum","South Denmark",,"11"
"081BRE","Bredstedt","Hertugdømmerne","2","North Sea (German/Danish coast)","2","Holstein","true","54.61666600","8.98333300","Germany","Bredstedt","Schleswig-Holstein",,"11"
"081DON","Döhnsdorf","Hertugdømmerne","1","The Baltic","2","Holstein","false","54.29416600","10.73055500","Germany","Döhnsdorf","Schleswig-Holstein",,"11"
"081EMM","Emmerleff","Hertugdømmerne","2","North Sea (German/Danish coast)","2","Holstein","true","54.98222200","8.67722200","Denmark","Emmerlev","South Denmark",,"11"
"081HEO","Helgoland","Hertugdømmerne","2","North Sea (German/Danish coast)","2","Holstein","true","54.18138800","7.88611100","Germany","Helgoland","Schleswig-Holstein",,"11"
"081HOJ","Højer","Hertugdømmerne","2","North Sea (German/Danish coast)","2","Holstein","true","54.96666600","8.71666600","Denmark","Højer","South Denmark",,"11"
"081LIR","Listerdyb","Hertugdømmerne","2","North Sea (German/Danish coast)","2","Holstein","true","55.06666600","8.41666600","Germany-Denmark","Listertief","Schleswig-Holstein",,"11"
"081LIT","List","Hertugdømmerne","2","North Sea (German/Danish coast)","2","Holstein","true","55.01916600","8.43111100","Germany","List","Schleswig-Holstein",,"11"
"081MAO","Mandø","Hertugdømmerne","2","North Sea (German/Danish coast)","2","Holstein","true","55.26666600","8.53333300","Denmark","Mandø","South Denmark",,"11"
"081REN","Rendsborg","Hertugdømmerne","1","The Baltic","2","Holstein","false","54.30000000","9.66666600","Germany","Rendsburg","Schleswig-Holstein",,"11"
"081ROM","Rømø","Hertugdømmerne","2","North Sea (German/Danish coast)","2","Holstein","true","55.13333300","8.51666600","Denmark","Rømø","South Denmark",,"11"
"081STH","Steinberghaff","Hertugdømmerne","1","The Baltic","2","Holstein","false","54.76555500","9.81638800","Germany","Steinberghaff","Schleswig-Holstein",,"11"
"081VOG","Vogelsang","Hertugdømmerne","1","The Baltic","2","Holstein","false","54.43333300","9.70000000","Germany","Vogelsang","Schleswig-Holstein",,"11"
"082BAO","Bad Oldesloe","Hertugdømmerne","2","North Sea (German/Danish coast)","2","Holstein","true","53.81166600","10.37416600","Germany","Bad Oldesloe","Schleswig-Holstein",,"11"
"082DAG","Dagebøl","Hertugdømmerne","2","North Sea (German/Danish coast)","2","Holstein","true","54.72916600","8.70083300","Germany","Dagebüll","Schleswig-Holstein",,"11"
"082DAL","Daler","Hertugdømmerne","2","North Sea (German/Danish coast)","2","Holstein","true","54.96944400","8.74333300","Denmark","Daler","South Denmark",,"11"
"082EID","Eiderstedt","Hertugdømmerne","2","North Sea (German/Danish coast)","2","Holstein","true","54.34880000","8.79440000","Germany","Eiderstedt","Schleswig-Holstein",,"11"
"082FOE","Før","Hertugdømmerne","2","North Sea (German/Danish coast)","2","Holstein","true","54.71666600","8.50000000","Germany","Föhr","Schleswig-Holstein",,"11"
"082FRR","Friederichsstad","Hertugdømmerne","2","North Sea (German/Danish coast)","2","Holstein","true","54.37555500","9.08666600","Germany","Friedrichstadt","Schleswig-Holstein",,"11"
"082GAM","Galmsbøl","Hertugdømmerne","2","North Sea (German/Danish coast)","2","Holstein","true","54.78333300","8.73333300","Germany","Neugalmsbüll","Schleswig-Holstein",,"11"
"082HOF","Hohnerfæhre","Hertugdømmerne","2","North Sea (German/Danish coast)","2","Holstein","true","54.28630000","9.39650000","Germany","Hohnerfähre","Schleswig-Holstein",,"11"
"082HOO","Hooge","Hertugdømmerne","2","North Sea (German/Danish coast)","2","Holstein","true","54.56666600","8.55000000","Germany","Hooge","Schleswig-Holstein",,"11"
"082HUS","Husum","Hertugdømmerne","2","North Sea (German/Danish coast)","2","Holstein","true","54.48555500","9.05222200","Germany","Husum (D)","Schleswig-Holstein",,"11"
"082KAR","Kjargaard","Hertugdømmerne","2","North Sea (German/Danish coast)","2","Holstein","true","54.98354000","8.70611100","Denmark","Kærgård","South Denmark",,"11"
"082NOA","Nordmarsch","Hertugdømmerne","2","North Sea (German/Danish coast)","2","Holstein","true","54.63333300","8.53333300","Germany","Nordmarsch","Schleswig-Holstein",,"11"
"082NOS","Nordstrand","Hertugdømmerne","2","North Sea (German/Danish coast)","2","Holstein","true","54.50000000","8.88333300","Germany","Nordstrand","Schleswig-Holstein",,"11"
"082NSS","Norderstapel","Hertugdømmerne","2","North Sea (German/Danish coast)","2","Holstein","true","54.35000000","9.25000000","Germany","Norderstapel","Schleswig-Holstein",,"11"
"082OLA","Oland","Hertugdømmerne","2","North Sea (German/Danish coast)","2","Holstein","true","54.67583300","8.70361100","Germany","Oland (D)","Schleswig-Holstein",,"11"
"082SIL","Sild","Hertugdømmerne","2","North Sea (German/Danish coast)","2","Holstein","true","54.90000000","8.33333300","Germany","Sylt","Schleswig-Holstein",,"11"
"082TND","Tønder","Hertugdømmerne","2","North Sea (German/Danish coast)","2","Holstein","true","54.93305500","8.86666600","Denmark","Tønder","South Denmark",,"11"
"082TNI","Tønningen","Hertugdømmerne","2","North Sea (German/Danish coast)","2","Holstein","true","54.31666600","8.95000000","Germany","Tönning","Schleswig-Holstein",,"11"
"083TIE","Tielen","Hertugdømmerne","2","North Sea (German/Danish coast)","2","Holstein","true","54.28305500","9.33333300","Germany","Tielen","Schleswig-Holstein",,"11"
"084ALT","Altona","Hertugdømmerne","2","North Sea (German/Danish coast)","2","Holstein","true","53.55000000","9.93333300","Germany","Hamburg","Hamburg",,"11"
"084KRO","Krokau","Hertugdømmerne","1","The Baltic","2","Holstein","false","54.40000000","10.35000000","Germany","Krokau","Schleswig-Holstein",,"11"
"085BEV","Bevern","Hertugdømmerne","2","North Sea (German/Danish coast)","2","Holstein","true","53.75223140","9.72959050","Germany","Bevern","Schleswig-Holstein",,"11"
"085BRE","Breiholz","Hertugdømmerne","2","North Sea (German/Danish coast)","2","Holstein","true","54.20000000","9.53333300","Germany","Breiholz","Schleswig-Holstein",,"11"
"085DEL","Delve","Hertugdømmerne","2","North Sea (German/Danish coast)","2","Holstein","true","54.31222710","9.18174960","Germany","Delve","Schleswig-Holstein",,"11"
"085FRE","Freiburg","Hertugdømmerne","2","North Sea (German/Danish coast)","2","Holstein","true","53.82969190","9.21356080","Germany","Freiburg","Lower Saxony",,"11"
"085GLU","Glückstadt","Hertugdømmerne","2","North Sea (German/Danish coast)","2","Holstein","true","53.78333300","9.41666600","Germany","Glückstadt","Schleswig-Holstein",,"11"
"085OSL","Osterziel","Hertugdømmerne","2","North Sea (German/Danish coast)","2","Holstein","true","54.51805500","8.68611100","Germany","Ostersiel","Schleswig-Holstein",,"11"
"085OST","Osterzyl","Hertugdømmerne","2","North Sea (German/Danish coast)","2","Holstein","true","54.50722500","8.69174800","Germany","Ostersiel","Schleswig-Holstein",,"11"
"085PAG","Pagensand","Hertugdømmerne","2","North Sea (German/Danish coast)","2","Holstein","true","53.68437400","9.51986300","Germany","Pagensand","Schleswig-Holstein",,"11"
"085PEL","Pellworm","Hertugdømmerne","2","North Sea (German/Danish coast)","2","Holstein","true","54.52138800","8.65611100","Germany","Pellworm","Schleswig-Holstein",,"11"
"085WIS","Wischhafen","Hertugdømmerne","2","North Sea (German/Danish coast)","2","Holstein","true","53.78333300","9.31666600","Germany","Wischhafen","Lower Saxony",,"11"
"086BLN","Blankenese","Hertugdømmerne","2","North Sea (German/Danish coast)","2","Holstein","true","53.55694400","9.80583300","Germany","Blankenese","Hamburg",,"11"
"086BRB","Brunsbuttel","Hertugdømmerne","2","North Sea (German/Danish coast)","2","Holstein","true","53.90000000","9.15000000","Germany","Brunsbüttel","Schleswig-Holstein",,"11"
"086BUS","Busum","Hertugdømmerne","2","North Sea (German/Danish coast)","2","Holstein","true","54.12667500","8.86225400","Germany","Büsum","Schleswig-Holstein",,"11"
"086DIT","Ditmarsen","Hertugdømmerne","2","North Sea (German/Danish coast)","2","Holstein","true","53.94120100","8.98370600","Germany","Dithmarschen","Schleswig-Holstein","The name of a piece of land around 1600 at the mouth of the Elbe","9"
"086PIB","Pinneberg","Hertugdømmerne","2","North Sea (German/Danish coast)","2","Holstein","true","53.65000000","9.80000000","Germany","Pinneberg","Schleswig-Holstein",,"11"
"086SFD","Schenefeld","Hertugdømmerne","2","North Sea (German/Danish coast)","2","Holstein","true","53.60277700","9.82333300","Germany","Schenefeld","Schleswig-Holstein",,"11"
"086UTE","Uetersen","Hertugdømmerne","2","North Sea (German/Danish coast)","2","Holstein","true","53.68333300","9.66666600","Germany","Uetersen","Schleswig-Holstein",,"11"
"086WEW","Wewelsfleth","Hertugdømmerne","2","North Sea (German/Danish coast)","2","Holstein","true","53.85000000","9.40000000","Germany","Wewelsfleth","Schleswig-Holstein",,"11"
"086WIS","Wilster","Hertugdømmerne","2","North Sea (German/Danish coast)","2","Holstein","true","53.91666600","9.38333300","Germany","Wilster","Schleswig-Holstein",,"11"
"087GAR","Garding","Hertugdømmerne","2","North Sea (German/Danish coast)","2","Holstein","true","54.33333300","8.78333300","Germany","Garding","Schleswig-Holstein",,"11"
"087GRE","Grevenstein","Hertugdømmerne","1","The Baltic","2","Holstein","false","54.91620000","9.58440000","Germany","Gravenstein","Schleswig-Holstein",,"11"
"087GRO","Grømitz","Hertugdømmerne","1","The Baltic","2","Holstein","false","54.15000000","10.96666600","Germany","Grömitz","Schleswig-Holstein",,"11"
"087HAF","Hafshagen","Pommern","1","The Baltic","13","South Baltic: East Prussia to Lubeck","false","54.00735500","11.15141800","Germany","Hafthagen","Mecklenburg-Vorpommern",,"11"
"087HEI","Heide","Hertugdømmerne","2","North Sea (German/Danish coast)","2","Holstein","true","54.20000000","9.10000000","Germany","Heide","Schleswig-Holstein",,"11"
"087HOW","Hohwacht","Hertugdømmerne","1","The Baltic","2","Holstein","false","54.32055500","10.67000000","Germany","Hohwacht","Schleswig-Holstein",,"11"
"087ITZ","Itzehoe","Hertugdømmerne","2","North Sea (German/Danish coast)","2","Holstein","true","53.91666600","9.51666600","Germany","Itzehoe","Schleswig-Holstein",,"11"
"087KRE","Krempe","Hertugdømmerne","2","North Sea (German/Danish coast)","2","Holstein","true","53.83333300","9.48333300","Germany","Krempe","Schleswig-Holstein",,"11"
"087LAN","Langeneß","Hertugdømmerne","2","North Sea (German/Danish coast)","2","Holstein","true","54.63333300","8.58333300","Germany","Langeneß","Schleswig-Holstein",,"11"
"087LOV","Løvenborg","Hertugdømmerne","1","The Baltic","2","Holstein","false","54.32055500","10.67000000","Germany","Hohwacht","Schleswig-Holstein",,"11"
"087LUN","Lunden","Hertugdømmerne","2","North Sea (German/Danish coast)","2","Holstein","true","54.33333300","9.01666600","Germany","Lunden","Schleswig-Holstein",,"11"
"087OBD","Obendorf","Tyskland","2","North Sea (German/Danish coast)","19","Hamburg, Bremen, Kleine Oost","true","53.75296500","9.14807200","Germany","Obendorff","Lower Saxony",,"11"
"087OLD","Oldenswort","Hertugdømmerne","2","North Sea (German/Danish coast)","2","Holstein","true","54.38333300","8.93333300","Germany","Oldenswort","Schleswig-Holstein",,"11"
"087RAH","Rotte","Hertugdømmerne","2","North Sea (German/Danish coast)","2","Holstein","true","53.96534600","9.42344400","Germany","Rahde","Schleswig-Holstein",,"11"
"087ROD","Rodemis","Hertugdømmerne","2","North Sea (German/Danish coast)","2","Holstein","true","54.46666600","9.05000000","Germany","Rödemis","Schleswig-Holstein",,"11"
"087SLE","Slesvig","Slesvig","2","North Sea (German/Danish coast)","2","Holstein","true","55.00000000","9.00000000","Denmark","Sønderjylland","South Denmark",,"11"
"087SLM","Sleimünde","Hertugdømmerne","1","The Baltic","2","Holstein","false","54.67361100","10.03444400","Germany","Schleimünde","Schleswig-Holstein",,"11"
"087STO","Stør","Hertugdømmerne","2","North Sea (German/Danish coast)","2","Holstein","true","53.81666600","9.40000000","Germany","Stör","Schleswig-Holstein",,"11"
"087WTK","Westerland","Hertugdømmerne","2","North Sea (German/Danish coast)","2","Holstein","true","54.90777700","8.30305500","Germany","Westerland","Schleswig-Holstein",,"11"
"087WYK","Wyk","Hertugdømmerne","2","North Sea (German/Danish coast)","2","Holstein","true","54.69138800","8.56694400","Germany","Wyk auf Föhr","Schleswig-Holstein",,"11"
"087ZAR","Zarnekau","Holstein","1","The Baltic","2","Holstein","false","54.14000000","10.68666600","Germany","Zarnekau","Schleswig-Holstein",,"11"
"088GRO","Groden","Holstein","2","North Sea (German/Danish coast)","2","Holstein","true","53.89500000","9.07444400","Germany","Groden","Schleswig-Holstein",,"11"
"088HOL","Holnis","Holstein","1","The Baltic","2","Holstein","false","54.87138800","9.59916600","Germany","Holnis","Schleswig-Holstein",,"11"
"088HOS","Land Holsten","Holstein","2","North Sea (German/Danish coast)","2","Holstein","true","54.60000000","9.50000000","Germany","Holstein","Schleswig-Holstein",,"9"
"088HUN","Hungerburg","Holstein","2","North Sea (German/Danish coast)","2","Holstein","true","54.90361100","8.83027700","Germany","Hungerburg","Schleswig-Holstein",,"11"
"088MON","Mönkhagen","Holstein","1","The Baltic","2","Holstein","false","53.90000000","10.55000000","Germany","Mönkhagen","Schleswig-Holstein",,"11"
"088TEU","Teufelsbrücke","Holstein","2","North Sea (German/Danish coast)","19","Hamburg, Bremen, Kleine Oost","true","53.54840000","9.85870000","Germany","Hamburg","Hamburg",,"11"
"090BAN","Bandixwarf","Holstein","2","North Sea (German/Danish coast)","2","Holstein","true","54.64694400","8.65611100","Germany","Bandixwarf","Schleswig-Holstein",,"11"
"091BER","Berrefiordshafn","Island","9","Iceland. Faroer. Green Land and Davis Straits","3","Iceland","true","64.71055500","-14.36111100","Iceland","Berufjörður","East Iceland",,"11"
"091BIL","Bildahlshaun","Island","9","Iceland. Faroer. Green Land and Davis Straits","3","Iceland","true","65.68611100","-23.60722200","Iceland","Bildudalur","Westfjords",,"11"
"091BOS","Bosandshaun","Island","9","Iceland. Faroer. Green Land and Davis Straits","3","Iceland","true","65.68944400","-15.03000000","Iceland","Búðasandur","East",,"11"
"091BUD","Budenstads Havn","Island","9","Iceland. Faroer. Green Land and Davis Straits","3","Iceland","true","64.81722200","-23.40388800","Iceland","Búðir","West",,"11"
"091DYR","Dyrefiørdshafn","Island","9","Iceland. Faroer. Green Land and Davis Straits","3","Iceland","true","65.92750000","-23.68777700","Iceland","Dýrafjörður","Westfjords",,"11"
"091EYA","Eyjafjörður","Island","9","Iceland. Faroer. Green Land and Davis Straits","3","Iceland","true","65.85250000","-18.14861100","Iceland","Eyjafjörður","Northeast",,"11"
"091FLD","Fladø","Grønland","9","Iceland. Faroer. Green Land and Davis Straits","3","Iceland","true","67.84250000","-32.22970000","Greenland","Fladø Island","Grønland",,"7"
"091GRH","Grönnefiordshafn","Island","9","Iceland. Faroer. Green Land and Davis Straits","3","Iceland","true","64.92416600","-23.26305500","Iceland","Grundarfjörður","West",,"11"
"091GRI","Grindavik","Island","9","Iceland. Faroer. Green Land and Davis Straits","3","Iceland","true","63.83833300","-22.43916600","Iceland","Grindavik","Southern Peninsula",,"11"
"091HAA","Haabsaashafn","Island","9","Iceland. Faroer. Green Land and Davis Straits","3","Iceland","true","65.89888800","-19.41277700","Iceland","Hofsós","Northwest",,"11"
"091HAF","Hafnefiord","Island","9","Iceland. Faroer. Green Land and Davis Straits","3","Iceland","true","64.06694400","-21.93750000","Iceland","Hafnarfjörður","Capital Region",,"11"
"091HAL","Halborg","Island","9","Iceland. Faroer. Green Land and Davis Straits","3","Iceland","true","65.73277700","-19.11055500","Iceland","Hólar","Northwest",,"11"
"091HOL","Holmenshafn","Island","9","Iceland. Faroer. Green Land and Davis Straits","3","Iceland","true","64.99250000","-13.47000000","Iceland","Hólmur","East",,"11"
"091HUS","Huusewigshafen","Island","9","Iceland. Faroer. Green Land and Davis Straits","3","Iceland","true","66.04138800","-17.33833300","Iceland","Húsavík","Northeast",,"11"
"091ILS","Ísafjörður","Island","9","Iceland. Faroer. Green Land and Davis Straits","3","Iceland","true","66.07527700","-23.12388800","Iceland","Ísafjörður","Westfjords",,"11"
"091ISL","Island","Island","9","Iceland. Faroer. Green Land and Davis Straits","3","Iceland","true","65.00000000","-18.00000000","Iceland","Iceland","Iceland",,"6"
"091KEV","Keflavík","Island","9","Iceland. Faroer. Green Land and Davis Straits","3","Iceland","true","64.00472200","-22.56222200","Iceland","Keflavík","Southern Peninsula",,"11"
"091KOL","Kollafjörður","Island","9","Iceland. Faroer. Green Land and Davis Straits","3","Iceland","true","64.20083300","-21.75416600","Iceland","Kollafjörður","Capital Region",,"11"
"091LEV","Levetshaun","Island","9","Iceland. Faroer. Green Land and Davis Straits","3","Iceland","true","66.18333300","-17.18333300","Iceland","Rif","Northeast",,"11"
"091OHN","Øsebackshavn","Island","9","Iceland. Faroer. Green Land and Davis Straits","3","Iceland","true","63.86805500","-21.15194400","Iceland","Eyrarbakki","South",,"11"
"091OLH","Olufswigshavn","Island","9","Iceland. Faroer. Green Land and Davis Straits","3","Iceland","true","64.89472200","-23.71916600","Iceland","Ólafsvík","West",,"11"
"091PAF","Patreksfjörður","Island","9","Iceland. Faroer. Green Land and Davis Straits","3","Iceland","true","65.59861100","-23.99416600","Iceland","Patreksfjörður","Westfjords",,"11"
"091PAP","Papij","Island","9","Iceland. Faroer. Green Land and Davis Straits","3","Iceland","true","64.59277700","-14.17194400","Iceland","Papey","East",,"11"
"091PRE","Prebackshaun","Island","9","Iceland. Faroer. Green Land and Davis Straits","3","Iceland","true","63.82638800","-18.03500000","Iceland","Prestbakki","South",,"11"
"091ROD","Reyðarfjörður","Island","9","Iceland. Faroer. Green Land and Davis Straits","3","Iceland","true","65.03138800","-14.21805500","Iceland","Reyðarfjörður","East",,"11"
"091RYV","Reykjavik","Island","9","Iceland. Faroer. Green Land and Davis Straits","3","Iceland","true","64.13527700","-21.89527700","Iceland","Reykjavik","Capital Region",,"11"
"091SEY","Seyðisfjörður","Island","9","Iceland. Faroer. Green Land and Davis Straits","3","Iceland","true","65.26004500","-14.00997200","Iceland","Seyðisfjörður","East",,"11"
"091SKH","Stykkishólmur","Island","9","Iceland. Faroer. Green Land and Davis Straits","3","Iceland","true","65.07555500","-22.72944400","Iceland","Stykkishólmur","West Iceland",,"11"
"091SSH","Schagestrandshavn","Island","9","Iceland. Faroer. Green Land and Davis Straits","3","Iceland","true","65.82638800","-20.29027700","Iceland","Skagaströnd","Northwest",,"11"
"091STH","Stapenshavn","Island","9","Iceland. Faroer. Green Land and Davis Straits","3","Iceland","true","64.77083300","-23.63555500","Iceland","Arnarstapi","West",,"11"
"091WAP","Wapnefiords Havn","Island","9","Iceland. Faroer. Green Land and Davis Straits","3","Iceland","true","65.75666600","-14.83222200","Iceland","Vopnafjörður","East",,"11"
"091WMH","West Manöehauner","Island","9","Iceland. Faroer. Green Land and Davis Straits","3","Iceland","true","63.43472200","-20.27111100","Iceland","Vestmannaeyjar","South",,"11"
"092FAE","Færøerne","Færøerne","9","Iceland. Faroer. Green Land and Davis Straits","4","The Faroe Islands","true","62.00000000","-7.00000000","Faroe Islands","Faroe Islands","Faroe Islands",,"11"
"092THV","Thorshavn","Færøerne","9","Iceland. Faroer. Green Land and Davis Straits","4","The Faroe Islands","true","62.00972200","-6.77138800","Faroe Islands","Tórshavn","Streymoy",,"11"
"093BAR","Barents Island","Spitzbergen","9","Iceland. Faroer. Green Land and Davis Straits","5","Greenland and Davis Strait","true","78.45000000","21.25000000","Svalbard and Jan Mayen","Barentsøya","Svalbard and Jan Mayen",,"5"
"093CHR","Christians Haab","Grønland","9","Iceland. Faroer. Green Land and Davis Straits","5","Greenland and Davis Strait","true","68.81916600","-51.19194400","Greenland","Qasigiannguit","Greenland",,"11"
"093DAV","Davisstrædet","Grønland","9","Iceland. Faroer. Green Land and Davis Straits","5","Greenland and Davis Strait","true","64.00000000","-57.00000000","Greenland","Davis Strait","Greenland",,"11"
"093FRI","Friedrichshaab","Grønland","9","Iceland. Faroer. Green Land and Davis Straits","5","Greenland and Davis Strait","true","61.99388800","-49.66750000","Greenland","Paamiut","Sermersooq",,"11"
"093GOT","Gothaab","Grønland","9","Iceland. Faroer. Green Land and Davis Straits","5","Greenland and Davis Strait","true","64.18333300","-51.72138800","Greenland","Nuuk","Sermersooq",,"11"
"093GRN","Grønland","Grønland","9","Iceland. Faroer. Green Land and Davis Straits","5","Greenland and Davis Strait","true","72.00000000","-40.00000000","Greenland","Greenland","Greenland",,"11"
"093HOL","Hollænderhavn","Grønland","9","Iceland. Faroer. Green Land and Davis Straits","5","Greenland and Davis Strait","true","68.71666600","-52.98333300","Greenland","Hollænderhavn","Qaasuitsup",,"11"
"093MOS","Mossel Baay","Spitzbergen","9","Iceland. Faroer. Green Land and Davis Straits","5","Greenland and Davis Strait","true","79.90694400","16.80138800","Svalbard and Jan Mayen","Sorgfjorden","Svalbard and Jan Mayen",,"11"
"093PRC","Prins Christian Sund","Grønland","9","Iceland. Faroer. Green Land and Davis Straits","5","Greenland and Davis Strait","true","60.05000000","-43.16666600","Greenland","Prins Christian Sund","Kujalleq",,"11"
"093SPT","Spitzbergen","Spitzbergen","9","Iceland. Faroer. Green Land and Davis Straits","5","Greenland and Davis Strait","true","78.75000000","-16.00000000","Svalbard and Jan Mayen","Svalbard","Svalbard and Jan Mayen",,"11"
"093UPN","Upernavik","Grønland","9","Iceland. Faroer. Green Land and Davis Straits","5","Greenland and Davis Strait","true","72.78666600","-56.15472200","Greenland","Upernavik","Qaasuitsup",,"11"
"099ISH","Ishavet","Arctic Ocean","15",,"99",,"true","0.00000000","0.00000000","Arctic Ocean","Arctic Ocean","Arctic Ocean",,"11"
"099SYD","Sydhavet","Southern Ocean","15",,"99",,"true","0.00000000","0.00000000","Southern Ocean","Southern Ocean","Southern Ocean",,"11"
"101FRI","Frederikshald","Norge","4","Norway","7","Norway","true","59.15000000","11.38333300","Norway","Halden","Østfold",,"11"
"102MOS","Moss","Norge","4","Norway","7","Norway","true","59.43666600","10.66916600","Norway","Moss","Østfold",,"11"
"102STA","Stathelle","Norge","4","Norway","7","Norway","true","59.05000000","9.68333300","Norway","Stathelle","Telemark",,"11"
"103KRI","Kristiania","Norge","4","Norway","7","Norway","true","59.91305500","10.73888800","Norway","Oslo","Oslo",,"11"
"105ADN","Ådneset","Norge","4","Norway","7","Norway","true","60.63500000","4.84166600","Norway","Ådneset","Hordaland",,"11"
"109BOG","Bogen","Norge","4","Norway","7","Norway","true","68.52638800","16.99277700","Norway","Bogen","Nordland",,"11"
"109DRB","Drøbak","Norge","4","Norway","7","Norway","true","59.66333300","10.63111100","Norway","Drøbak","Akershus",,"11"
"109FRT","Frederiksstad","Norge","4","Norway","7","Norway","true","59.21388800","10.93805500","Norway","Fredrikstad","Østfold",,"11"
"109GRE","Grue","Norge","4","Norway","7","Norway","true","60.42333300","12.23500000","Norway","Grue","Hedmark",,"11"
"109HVI","Hvidsten","Norge","4","Norway","7","Norway","true","59.59833300","10.65694400","Norway","Hvitsten","Akershus",,"11"
"109SVS","Svinesund","Norge","4","Norway","7","Norway","true","59.10111100","11.26916600","Norway","Svinesund","Østfold",,"11"
"109VAV","Vavesund","Norge","4","Norway","7","Norway","true","70.03333300","19.86666600","Norway","Vannsundet","Troms",,"11"
"110KIR","Kirkehamn","Norge","4","Norway","7","Norway","true","58.23166600","6.53250000","Norway","Kirkehamn","Vest-Agder",,"11"
"111DRM","Drammen","Norge","4","Norway","7","Norway","true","59.74250000","10.21166600","Norway","Drammen","Buskerud",,"11"
"112TNS","Tønsberg","Norge","4","Norway","7","Norway","true","59.28583300","10.41805500","Norway","Tønsberg","Vestfold",,"11"
"113NOT","Nøtterø","Norge","4","Norway","7","Norway","true","59.23333300","10.40000000","Norway","Nøtterøy","Vestfold",,"11"
"114TJO","Tjømø","Norge","4","Norway","7","Norway","true","59.11666600","10.40000000","Norway","Tjømø","Vestfold",,"11"
"115GRH","Grindholmen","Norge","4","Norway","7","Norway","true","59.10147290","10.27160160","Norway","Grindholmen","Vestfold",,"11"
"115SAD","Sandefjord","Norge","4","Norway","7","Norway","true","59.13333300","10.23333300","Norway","Sandefjord","Vestfold",,"11"
"116LAV","Larvik","Norge","4","Norway","7","Norway","true","59.05638800","10.03722200","Norway","Larvik","Vestfold",,"11"
"119AAS","Aasgaardsstrand","Norge","4","Norway","7","Norway","true","59.35138800","10.44333300","Norway","Åsgårdstrand","Vestfold",,"11"
"119BAS","Bastø","Norge","4","Norway","7","Norway","true","59.37861100","10.52750000","Norway","Bastøy","Vestfold",,"11"
"119BOR","Børresøgn","Norge","4","Norway","7","Norway","true","63.29194400","10.07305500","Norway","Skaun","Sør-Trøndelag",,"11"
"119BRA","Bragenæs","Norge","4","Norway","7","Norway","true","59.74750000","10.21138800","Norway","Bragernes","Buskerud",,"11"
"119FRE","Frebergsvik","Norge","4","Norway","7","Norway","true","59.45000000","10.38333300","Norway","Frebergsvika","Vestfold",,"11"
"119FVN","Frederiksværn","Norge","4","Norway","7","Norway","true","59.00000000","10.03333300","Norway","Stavern","Vestfold",,"11"
"119GUL","Gulmarsfjord","Norge","4","Norway","7","Norway","true","71.03333300","28.18333300","Norway","Gunnarsfjorden","Finnmark",,"11"
"119HOB","Holmbø","Norge","4","Norway","7","Norway","true","59.56138800","10.42750000","Norway","Holmsbu","Buskerud",,"11"
"119HOL","Høllen","Norge","4","Norway","7","Norway","true","58.08333300","7.81666600","Norway","Høllen","Vest-Agder",,"11"
"119HOM","Holmestrand","Norge","4","Norway","7","Norway","true","59.48833300","10.30277700","Norway","Holmestrand","Vestfold",,"11"
"119HOT","Horten","Norge","4","Norway","7","Norway","true","59.41361100","10.46694400","Norway","Horten","Vestfold",,"11"
"119HUR","Hurum","Norge","4","Norway","7","Norway","true","59.55916600","10.49694400","Norway","Hurum","Buskerud",,"11"
"119KJR","Kjeringvig","Norge","4","Norway","7","Norway","true","63.65000000","8.76666600","Norway","Kjerringvåg","Sør-Trøndelag",,"11"
"119MEL","Melsomvik","Norge","4","Norway","7","Norway","true","59.22388800","10.34472200","Norway","Melsomvik","Vestfold",,"11"
"119NUM","Numedal","Norge","4","Norway","7","Norway","true","60.26666600","8.73333300","Norway","Uvdal","Buskerud",,"11"
"119SAH","Sandeherred","Norge","4","Norway","7","Norway","true","59.13333300","10.23333300","Norway","Sandar","Vestfold",,"11"
"119SLB","Slæben","Norge","4","Norway","7","Norway","true","61.50000000","5.98333300","Norway","Slåtten","Sogn og Fjordane",,"11"
"119STE","Stokke sogn","Norge","4","Norway","7","Norway","true","59.00000000","9.81666600","Norway","Stokkøya","Vestfold",,"11"
"119STR","Strømsø","Norge","4","Norway","7","Norway","true","59.73444400","10.21305500","Norway","Strømsø","Buskerud",,"11"
"119SUD","Sundsvoll","Norge","4","Norway","7","Norway","true","65.68333300","11.83333300","Norway","Sundsvoll","Nordland",,"11"
"119SVE","Svelvik","Norge","4","Norway","7","Norway","true","59.61083300","10.40583300","Norway","Svelvik","Vestfold",,"11"
"119SVN","Staværn","Norge","4","Norway","7","Norway","true","59.00000000","10.03333300","Norway","Stavern","Vestfold",,"11"
"120ASB","Åsberg","Norge","4","Norway","7","Norway","true","60.41666600","8.43333300","Norway","Åsberg","Buskerud",,"11"
"120BAL","Balsfjorden","Norge","4","Norway","7","Norway","true","69.41972200","19.01388800","Norway","Balsfjorden","Troms",,"11"
"120BEV","Bergsviki","Norge","4","Norway","7","Norway","true","60.76305500","4.90138800","Norway","Bergsviki","Hordaland",,"11"
"120BOD","Bodø","Norge","4","Norway","7","Norway","true","67.28000000","14.40500000","Norway","Bodø","Nordland",,"11"
"120BOR","Borkenes","Norge","4","Norway","7","Norway","true","68.77388800","16.17388800","Norway","Borkenes","Troms",,"11"
"120BRU","Brøndal","Norge","4","Norway","7","Norway","true","67.29230000","15.42550000","Norway","Brønnelehn","Nordland","?? enige wat ik kon vinden","11"
"120ORN","Ørnes","Norge","4","Norway","7","Norway","true","66.86844200","13.70400000","Norway","Ørnes","Nordland",,"11"
"121AAR","Årøya","Norge","4","Norway","7","Norway","true","70.14305500","23.21138800","Norway","Årøya","Finnmark",,"11"
"121ARE","Arendal","Norge","4","Norway","7","Norway","true","58.46027700","8.76666600","Norway","Arendal","Aust-Agder",,"11"
"121FLO","Flaugstad","Norge","4","Norway","7","Norway","true","58.53579200","8.95943700","Norway","Flosta","Aust-Agder",,"11"
"121HOY","Høyevarde","Norge","4","Norway","7","Norway","true","59.32222200","5.31777700","Norway","Høyevarde","Rogaland",,"11"
"121KAS","Karmsundet","Norge","4","Norway","7","Norway","true","59.29361100","5.32611100","Norway","Karmsundet","Rogaland",,"11"
"121LIL","Lillehammer","Norge","4","Norway","7","Norway","true","61.11500000","10.46611100","Norway","Lillehammer","Oppland",,"11"
"121MOS","Mosterhamn","Norge","4","Norway","7","Norway","true","59.69916600","5.38583300","Norway","Mosterhamn","Hordaland",,"11"
"121NES","Neshamn","Norge","4","Norway","7","Norway","true","59.95361100","5.48194400","Norway","Neshamn","Hordaland",,"11"
"121SEM","Sem","Norge","4","Norway","7","Norway","true","59.28333300","10.33333300","Norway","Sem","Vestfold",,"11"
"121TRA","Trælevik","Norge","4","Norway","7","Norway","true","61.11555500","5.30777700","Norway","Trælevik","Sogn og Fjordane",,"11"
"122NED","Nedenæs","Norge","4","Norway","7","Norway","true","58.41666600","8.70000000","Norway","Nedenes","Aust-Agder",,"11"
"122SPI","Spind","Norge","4","Norway","7","Norway","true","58.10000000","6.90000000","Norway","Spind","Vest-Agder",,"11"
"123KRT","Kristiansand","Norge","4","Norway","7","Norway","true","58.14722200","7.99944400","Norway","Kristiansand","Vest-Agder",,"11"
"124MAG","Mandal","Norge","4","Norway","7","Norway","true","58.03333300","7.45000000","Norway","Mandal","Vest-Agder",,"11"
"124WAL","Walløe","Norge","4","Norway","7","Norway","true","59.26750000","10.40750000","Norway","Tønsberg","Vestfold",,"11"
"125ABE","Abelnes","Norge","4","Norway","7","Norway","true","58.23900000","6.65250000","Norway","Abelnes","Vest-Agder",,"11"
"125BAT","Båtsfjord","Norge","4","Norway","7","Norway","true","70.63444400","29.71833300","Norway","Båtsfjord","Finnmark",,"11"
"125FIL","Filtvet","Norge","4","Norway","7","Norway","true","59.57277700","10.61388800","Norway","Filtvet","Buskerud",,"11"
"125FLE","Flekkefjord","Norge","4","Norway","7","Norway","true","58.28333300","6.68333300","Norway","Flekkefjord","Vest-Agder",,"11"
"125HAD","Hadselfjorden","Norge","4","Norway","7","Norway","true","68.47555500","14.78222200","Norway","Hadselfjorden","Nordland",,"11"
"125HAL","Halsund","Norge","4","Norway","7","Norway","true","60.44205200","5.14232000","Norway","Holsund","Hordaland",,"11"
"125HAT","Halto","Norge","4","Norway","7","Norway","true","60.65000000","8.46666600","Norway","Halto","Buskerud",,"11"
"125KJO","Kjøpstad","Norge","4","Norway","7","Norway","true","67.06777700","14.25611100","Norway","Kjøpstad","Nordland",,"11"
"125LFJ","Langfjord","Norge","4","Norway","7","Norway","true","70.05638800","22.36083300","Norway","Langfjorden","Finnmark",,"11"
"125NSS","Nessund","Norge","4","Norway","7","Norway","true","58.86722200","9.44250000","Norway","Nessund","Telemark",,"11"
"125OFJ","Åfjord","Norge","4","Norway","7","Norway","true","63.96194400","10.22583300","Norway","Åfjord","Sør-Trøndelag",,"11"
"125OMH","Omholt","Norge","4","Norway","7","Norway","true","59.51666600","9.83333300","Norway","Omholt","Buskerud",,"11"
"125SAS","Sandesund","Norge","4","Norway","7","Norway","true","59.28333300","11.10000000","Norway","Sandesund","Østfold",,"11"
"125SRB","Sarpsborg","Norge","4","Norway","7","Norway","true","59.28388800","11.10944400","Norway","Sarpsborg","Østfold",,"11"
"125UTH","Uthagen","Norge","4","Norway","7","Norway","true","59.47388800","9.32444400","Norway","Uthagen","Telemark",,"11"
"126HAV","Havnestad","Norge","4","Norway","7","Norway","true","59.27190000","11.05530000","Norway","Hannestad","Østfold",,"11"
"126STV","Stavanger","Norge","4","Norway","7","Norway","true","58.96666600","5.75000000","Norway","Stavanger","Rogaland",,"11"
"129AAE","Aalesund","Norge","4","Norway","7","Norway","true","62.47083300","6.15194400","Norway","Ålesund","Møre og Romsdal",,"11"
"129AAG","Aagerø","Norge","4","Norway","7","Norway","true","65.91666600","12.26666600","Norway","Åkerøya","Nordland",,"11"
"129ABB","Abbefjord","Norge","4","Norway","7","Norway","true","68.80000000","14.90000000","Norway","Auenfjorden","Nordland",,"11"
"129AGN","Agnefest","Norge","4","Norway","7","Norway","true","58.13333300","7.05000000","Norway","Agnefest","Vest-Agder",,"11"
"129AHA","Åkrehamn","Norge","4","Norway","7","Norway","true","59.26246950","5.16222860","Norway","Åkrehamn","Rogaland",,"11"
"129AKE","Akerhus","Norge","4","Norway","7","Norway","true","59.90636200","10.73633300","Norway","Akerhus","Oslo",,"11"
"129ANA","Aaensire","Norge","4","Norway","7","Norway","true","58.30000000","6.43333300","Norway","Åna-Sira","Rogaland",,"11"
"129APE","Apelnæs","Norge","4","Norway","7","Norway","true","59.43333300","10.45000000","Norway","Apenes","Vestfold",,"11"
"129BOE","Boe","Norge","4","Norway","7","Norway","true","59.43955050","8.86240060","Norway","Bø","Telemark",,"11"
"129BON","Bondefjord","Norge","4","Norway","7","Norway","true","69.32638800","18.06972200","Norway","Bondjorda","Troms",,"11"
"129BRO","Bro","Norge","4","Norway","7","Norway","true","59.03333300","5.65000000","Norway","Bru","Rogaland",,"11"
"129BRU","Brunlalen","Norge","4","Norway","7","Norway","true","60.16666600","11.10000000","Norway","Brudalen","Akershus",,"11"
"129BRV","Brevik","Norge","4","Norway","7","Norway","true","59.06666600","9.70000000","Norway","Brevik","Telemark",,"11"
"129EGE","Egersund","Norge","4","Norway","7","Norway","true","58.45000000","6.00000000","Norway","Egersund","Rogaland",,"11"
"129FAS","Farsund","Norge","4","Norway","7","Norway","true","58.09472200","6.80166600","Norway","Farsund","Vest-Agder",,"11"
"129FED","Feda","Norge","4","Norway","7","Norway","true","58.26666600","6.83333300","Norway","Feda","Vest-Agder",,"11"
"129FIN","Finderup","Norge","4","Norway","7","Norway","true","60.08333300","9.71666600","Norway","Finnerud","Buskerud",,"11"
"129FLD","Finsland","Norge","4","Norway","7","Norway","true","58.31666600","7.61666600","Norway","Finsland","Vest-Agder",,"11"
"129FLK","Flekkerø","Norge","4","Norway","7","Norway","true","58.06666600","7.98333300","Norway","Ytre Flekkerøy","Vest-Agder",,"11"
"129FOS","Fosen","Norge","4","Norway","7","Norway","true","59.31666600","5.38333300","Norway","Fosen","Rogaland",,"11"
"129GJE","Gjedviksund","Norge","4","Norway","7","Norway","true","62.96638800","7.78638800","Norway","Gjemnessundet","Møre og Romsdal",,"11"
"129GRO","Grøten","Norge","4","Norway","7","Norway","true","63.13333300","9.35000000","Norway","Grøtan","Møre og Romsdal",,"11"
"129GRS","Grimstad","Norge","4","Norway","7","Norway","true","58.34055500","8.58861100","Norway","Grimstad","Aust-Agder",,"11"
"129HAL","Hålland","Norge","4","Norway","7","Norway","true","60.53333300","5.43333300","Norway","Hålland","Hordaland",,"11"
"129HAR","Harmensund","Norge","4","Norway","7","Norway","true","59.41194400","5.27750000","Norway","Haugesund","Rogaland",,"11"
"129HED","Hedwal","Norge","4","Norway","7","Norway","true","60.61666600","9.70000000","Norway","Hedal","Oppland",,"11"
"129HEL","Hellisø","Norge","4","Norway","7","Norway","true","60.75250000","4.71138800","Norway","Hellisøy","Hordaland",,"11"
"129HIE","Hitterø","Norge","4","Norway","7","Norway","true","58.21666600","6.58333300","Norway","Hidra","Vest-Agder",,"11"
"129HIL","Hillestad","Norge","4","Norway","7","Norway","true","61.31666600","7.23333300","Norway","Hillestad","Sogn og Fjordane",,"11"
"129HIN","Histenæs","Norge","4","Norway","7","Norway","true","61.85000000","6.03333300","Norway","Hestenesøyra","Sogn og Fjordane",,"11"
"129HLS","Hellesund","Norge","4","Norway","7","Norway","true","58.90380000","9.40430000","Norway","Hellesund","Telemark",,"11"
"129HOY","Houa","Norge","4","Norway","7","Norway","true","61.65000000","8.01666600","Norway","Høya","Oppland",,"11"
"129HUN","Hundebostrand","Norge","4","Norway","7","Norway","true","69.04444400","17.61444400","Norway","Hundstrand","Troms",,"11"
"129INN","Innfjorden","Norge","4","Norway","7","Norway","true","62.49333490","7.55124360","Norway","Innfjorden","Møre og Romsdal",,"11"
"129JOM","Jomfruland","Norge","4","Norway","7","Norway","true","58.86666600","9.58333300","Norway","Jomfruland","Telemark",,"11"
"129KJE","Kjelvik","Norge","4","Norway","7","Norway","true","70.97777700","25.98333300","Norway","Kjelvik","Finnmark",,"11"
"129KOP","Kopervik","Norge","4","Norway","7","Norway","true","59.28663360","5.28097000","Norway","Kopervik","Rogaland",,"11"
"129KOR","Korshavn","Norge","4","Norway","7","Norway","true","62.35000000","6.10000000","Norway","Korshamn","Møre og Romsdal",,"11"
"129KRA","Kragerø","Norge","4","Norway","7","Norway","true","58.86666600","9.41666600","Norway","Kragerø","Telemark",,"11"
"129KRS","Krogstad","Norge","4","Norway","7","Norway","true","63.11666600","10.01666600","Norway","Krokstad","Sør-Trøndelag",,"11"
"129KVI","Kvinesdal","Norge","4","Norway","7","Norway","true","58.31666600","6.95000000","Norway","Kvinesdal","Vest-Agder",,"11"
"129LAE","Langesund","Norge","4","Norway","7","Norway","true","59.00000000","9.75000000","Norway","Langesund","Telemark",,"11"
"129LAN","Langenes","Norge","4","Norway","7","Norway","true","62.01666600","5.13333300","Norway","Langenes","Sogn og Fjordane",,"11"
"129LIE","Lister","Norge","4","Norway","7","Norway","true","58.11666600","6.66666600","Norway","Lista","Vest-Agder",,"11"
"129LIL","Lillesand","Norge","4","Norway","7","Norway","true","58.25222200","8.37833300","Norway","Lillesand","Aust-Agder",,"11"
"129LIN","Lindesnes","Norge","4","Norway","7","Norway","true","58.06638800","7.24055500","Norway","Lindesnes","Vest-Agder",,"11"
"129LIS","Listerlen","Norge","4","Norway","7","Norway","true","58.11666600","6.66666600","Norway","Lista","Vest-Agder",,"11"
"129LNG","Lyngør","Norge","4","Norway","7","Norway","true","58.63340000","9.13060000","Norway","Lyngør","Aust-Agder",,"11"
"129LSU","Løvesunde","Norge","4","Norway","7","Norway","true","59.05000000","9.73333300","Norway","Løvøysundet","Telemark",,"11"
"129LYN","Lyngdal","Norge","4","Norway","7","Norway","true","58.13333300","7.08333300","Norway","Lyngdal","Vest-Agder",,"11"
"129LYS","Lysholmen","Norge","4","Norway","7","Norway","true","62.00111100","5.17944400","Norway","Lysholmen","Sogn og Fjordane",,"11"
"129MAL","Malm Øen","Norge","4","Norway","7","Norway","true","59.87153300","10.75528400","Norway","Malmøya","Oslo",,"10"
"129MER","Merdø","Norge","4","Norway","7","Norway","true","58.42416600","8.80250000","Norway","Merdø","Aust-Agder",,"11"
"129MOH","Moholt","Norge","4","Norway","7","Norway","true","63.40000000","10.43333300","Norway","Moholt","Sør-Trøndelag",,"11"
"129NDL","Nordland","Norge","4","Norway","7","Norway","true","67.00000000","14.66666600","Norway","Nordland","Nordland",,"11"
"129NMO","Nordmøre","Norge","4","Norway","7","Norway","true","63.00000000","8.50000000","Norway","Nordmøre","Møre og Romsdal",,"11"
"129ODR","Oddero","Norge","4","Norway","7","Norway","true","58.13333300","8.01666600","Norway","Odderøya","Vest-Agder",,"11"
"129OET","Østerrisør","Norge","4","Norway","7","Norway","true","58.71666600","9.23333300","Norway","Østerrisør","Aust-Agder",,"11"
"129OSL","Oslo","Norge","4","Norway","7","Norway","true","59.91305500","10.73888800","Norway","Oslo","Oslo",,"11"
"129POS","Porsgrund","Norge","4","Norway","7","Norway","true","59.15000000","9.66666600","Norway","Porsgrunn","Telemark",,"11"
"129RAL","Randahl","Norge","4","Norway","7","Norway","true","60.91666600","4.98333300","Norway","Randahl","Sogn og Fjordane",,"11"
"129REF","Refsund","Norge","4","Norway","7","Norway","true","58.53333300","6.30000000","Norway","Refsland","Rogaland",,"11"
"129REP","Repervik","Norge","4","Norway","7","Norway","true","69.58333300","19.70000000","Norway","Reiervik","Troms",,"11"
"129ROM","Romsdal","Norge","4","Norway","7","Norway","true","62.43333300","7.91666600","Norway","Romsdal","Møre og Romsdal",,"11"
"129SAE","Sandnes","Norge","4","Norway","7","Norway","true","58.85000000","5.73333300","Norway","Sandnes","Rogaland",,"11"
"129SAN","Sand","Norge","4","Norway","7","Norway","true","59.48390000","6.24960000","Norway","Sand","Rogaland",,"11"
"129SBO","Skarbo","Norge","4","Norway","7","Norway","true","58.90440000","9.40100000","Norway","Skarbo","Telemark",,"11"
"129SHA","Schallø havn","Norge","4","Norway","7","Norway","true","62.61666600","7.26666600","Norway","Skålhamn","Møre og Romsdal",,"11"
"129SIR","Sirevog","Norge","4","Norway","7","Norway","true","58.50320000","5.80120000","Norway","Sirevåg","Rogaland",,"11"
"129SKA","Skaare","Norge","4","Norway","7","Norway","true","59.41666600","5.33333300","Norway","Skåre","Rogaland",,"11"
"129SKI","Skien","Norge","4","Norway","7","Norway","true","59.20000000","9.60000000","Norway","Skien","Telemark",,"11"
"129SKU","Skudenes","Norge","4","Norway","7","Norway","true","59.15025900","5.25713600","Norway","Skudenes","Rogaland",,"11"
"129SOG","Sogndal","Norge","4","Norway","7","Norway","true","61.23000000","7.09940600","Norway","Sogndal","Sogn og Fjordane",,"11"
"129SOM","Søndmøre","Norge","4","Norway","7","Norway","true","62.33333300","6.66666600","Norway","Sunnmøre","Møre og Romsdal",,"11"
"129SON","Son","Norge","4","Norway","7","Norway","true","59.52305500","10.68916600","Norway","Son","Akershus",,"11"
"129STF","Stramfjord","Norge","4","Norway","7","Norway","true","67.93110000","15.55070000","Norway","Straumfjord","Nordland",,"11"
"129STR","Strømfjord","Norge","4","Norway","7","Norway","true","68.68333300","15.06666600","Norway","Straumfjord","Nordland",,"11"
"129SWN","Swinør","Norge","4","Norway","7","Norway","true","58.02916600","7.22416600","Norway","Svinør","Vest-Agder",,"11"
"129TRM","Tromme","Norge","4","Norway","7","Norway","true","58.46777700","8.85444400","Norway","Tromøy","Aust-Agder",,"11"
"129TUN","Tunø","Norge","4","Norway","7","Norway","true","59.30000000","11.10000000","Norway","Tunevatn","Østfold",,"11"
"129TVE","Tvedestrand","Norge","4","Norway","7","Norway","true","58.62166600","8.91333300","Norway","Tvedestrand","Aust-Agder",,"11"
"129ULV","Ulvøsund","Norge","4","Norway","7","Norway","true","61.95972200","5.15138800","Norway","Ulvesundet","Sogn og Fjordane",,"11"
"129UND","Undahl","Norge","4","Norway","7","Norway","true","62.81666600","10.03333300","Norway","Unndal","Sør-Trøndelag",,"11"
"129VAE","Væro","Norge","4","Norway","7","Norway","true","63.97305500","9.10472200","Norway","Værøya","Sør-Trøndelag",,"11"
"129VEK","Vestkil","Norge","4","Norway","7","Norway","true","63.88333300","10.96666600","Norway","Vestvik","Nord-Trøndelag",,"11"
"129VES","Vesterrisør","Norge","4","Norway","7","Norway","true","58.03333300","7.45000000","Norway","Mandal","Vest-Agder",,"11"
"129WAS","Wasø","Norge","4","Norway","7","Norway","true","58.99833300","5.78500000","Norway","Vassøy","Rogaland",,"11"
"130AKE","Åkenes","Norge","4","Norway","7","Norway","true","68.96666600","15.45000000","Norway","Åkenes","Nordland",,"11"
"130GAS","Gåsøya","Norge","4","Norway","7","Norway","true","66.37333300","12.50277700","Norway","Gåsøya","Nordland",,"11"
"130LER","Leirsund","Norge","4","Norway","7","Norway","true","60.00000000","11.08000000","Norway","Leirsund","Akershus",,"11"
"130NOR","Nørland","Norge","4","Norway","7","Norway","true","60.81666600","5.38333300","Norway","Nørland","Hordaland",,"11"
"130NYH","Ny Hellesund","Norge","4","Norway","7","Norway","true","58.06666600","7.83333300","Norway","Ny Hellesund","Vest-Agder",,"11"
"131BER","Bergen","Norge","4","Norway","7","Norway","true","60.39305500","5.32416600","Norway","Bergen (N)","Hordaland",,"11"
"131EGK","Ellinggaardskil","Norge","4","Norway","7","Norway","true","59.25138800","10.77500000","Norway","Ellingårdskilen","Østfold",,"11"
"131EGV","Egvog","Norge","4","Norway","7","Norway","true","60.50000000","5.05138800","Norway","Eikevågen","Hordaland",,"11"
"131FJH","Fjære Herred","Norge","4","Norway","7","Norway","true","58.34305500","8.59527700","Norway","Grimstad","Aust-Agder",,"11"
"131GMS","Gammelsand","Norge","4","Norway","7","Norway","true","69.78333300","18.13333300","Norway","Gammelgard","Troms",,"11"
"131GRD","Grindø","Norge","4","Norway","7","Norway","true","69.85083300","21.06138800","Norway","Grinde","Troms",,"11"
"131HAR","Hardanger","Norge","4","Norway","7","Norway","true","60.18450000","6.02170000","Norway","Hardangerfjorden","Hordaland",,"9"
"131HVA","Hvaler","Norge","4","Norway","7","Norway","true","59.02805500","11.03083300","Norway","Hvaler","Østfold",,"11"
"131LRK","Larkollen","Norge","4","Norway","7","Norway","true","59.33388800","10.66555500","Norway","Larkollen","Østfold",,"11"
"131MEL","Meland","Norge","4","Norway","7","Norway","true","60.51777700","5.24055500","Norway","Meland","Hordaland",,"11"
"131NST","Nerstrand","Norge","4","Norway","7","Norway","true","59.35000000","5.80000000","Norway","Nedstrand","Rogaland",,"11"
"131SHL","Sunnhordland","Norge","4","Norway","7","Norway","true","59.91666600","5.50000000","Norway","Sunnhordland","Hordaland",,"11"
"131SKL","Saltkil","Norge","4","Norway","7","Norway","true","67.10138800","15.39444400","Norway","Saltdal","Nordland",,"11"
"131SOG","Sogn","Norge","4","Norway","7","Norway","true","58.08333300","7.81666600","Norway","Søgne","Vest-Agder",,"11"
"131SOL","Soldstrand","Norge","4","Norway","7","Norway","true","60.18746800","5.48534100","Norway","Soldstrand","Hordaland",,"9"
"131STM","Strømmen","Norge","4","Norway","7","Norway","true","63.86666600","11.30000000","Norway","Straumen","Nord-Trøndelag",,"11"
"131SUN","Sundal","Norge","4","Norway","7","Norway","true","60.11663400","6.26745000","Norway","Sundal","Hordaland",,"11"
"131TIN","Tinnden","Norge","4","Norway","7","Norway","true","59.55000000","9.25000000","Norway","Tinne","Telemark",,"11"
"131TRM","Trommesund","Norge","4","Norway","7","Norway","true","69.65361100","18.96055500","Norway","Tromsø","Troms",,"11"
"131TRS","Tromme Sogn","Norge","4","Norway","7","Norway","true","69.65361100","18.96055500","Norway","Tromsø","Troms",,"11"
"131VIK","Viken","Norge","4","Norway","7","Norway","true","70.11666600","20.06666600","Norway","Vikan","Troms",,"11"
"139BEK","Bekkjarvik","Norge","4","Norway","7","Norway","true","60.00277700","5.20027700","Norway","Bekkjarvik","Hordaland",,"11"
"139MAS","Måsøy","Norge","4","Norway","7","Norway","true","71.01055500","24.99222200","Norway","Måsøy","Finnmark",,"11"
"141KRA","Kråkstad","Norge","4","Norway","7","Norway","true","63.43333300","11.70000000","Norway","Kråkstad","Nord-Trøndelag",,"11"
"141LEV","Levanger","Norge","4","Norway","7","Norway","true","63.74843400","11.30500100","Norway","Levanger","Nord-Trøndelag",,"11"
"141NAM","Namsos","Norge","4","Norway","7","Norway","true","64.46057800","11.47688100","Norway","Namsos","Nord-Trøndelag",,"11"
"141TRD","Trondhjem","Norge","4","Norway","7","Norway","true","63.43027700","10.39472200","Norway","Trondheim","Sør-Trøndelag",,"11"
"148KSS","Kristiansten","Norge","4","Norway","7","Norway","true","63.43333300","10.41666600","Norway","Kristiansten","Sør-Trøndelag",,"11"
"149KRU","Kristiansund","Norge","4","Norway","7","Norway","true","63.12027700","7.71277700","Norway","Kristiansund","Møre og Romsdal",,"11"
"149MLS","Moldesund","Norge","4","Norway","7","Norway","true","62.73333300","7.18333300","Norway","Molde","Møre og Romsdal",,"11"
"149MOL","Molde","Norge","4","Norway","7","Norway","true","62.73333300","7.18333300","Norway","Molde","Møre og Romsdal",,"11"
"149NAR","Narvik","Norge","4","Norway","7","Norway","true","68.43555500","17.43722200","Norway","Narvik","Nordland",,"11"
"149OKS","Økssundet","Norge","4","Norway","7","Norway","true","67.96965670","15.22932060","Norway","Økssundet","Nordland",,"11"
"149SUM","Sunnmøre","Norge","4","Norway","7","Norway","true","62.33333300","6.66666600","Norway","Sunnmøre","Møre og Romsdal",,"11"
"159FIM","Finmarken","Norge","4","Norway","7","Norway","true","70.00000000","25.00000000","Norway","Finnmark Fylke","Finnmark",,"11"
"159HAA","Haa","Norge","4","Norway","7","Norway","true","69.73694400","18.07805500","Norway","Håja","Troms",,"11"
"159HAF","Hammerfest","Norge","4","Norway","7","Norway","true","70.66333300","23.68166600","Norway","Hammerfest","Finnmark",,"11"
"159HAG","Hagenes","Norge","4","Norway","7","Norway","true","59.20000000","10.10000000","Norway","Hagenes","Vestfold",,"11"
"159HEG","Helgeland","Norge","4","Norway","7","Norway","true","59.40000000","5.78333300","Norway","Helgeland","Rogaland",,"11"
"159HOM","Homborgsund","Norge","4","Norway","7","Norway","true","58.25000000","8.51666600","Norway","Homborsund","Aust-Agder",,"11"
"159KJF","Kjøllefjord","Norge","4","Norway","7","Norway","true","70.93823800","27.37866400","Norway","Kjøllefjord","Finnmark",,"11"
"159KON","Kongsvik","Norge","4","Norway","7","Norway","true","68.56666600","16.25000000","Norway","Kongsvik","Nordland",,"11"
"159NOK","Nordkap","Norge","4","Norway","7","Norway","true","71.17083300","25.78416600","Norway","Nordkapp","Telemark",,"11"
"159OFI","Ost Finmarcken","Norge","4","Norway","7","Norway","true","59.90000000","10.08333300","Norway","Finnemarka","Buskerud",,"11"
"159OKS","Oksefjord","Norge","4","Norway","7","Norway","true","70.23916600","22.37138800","Norway","Øksfjord","Finnmark",,"11"
"159STJ","Stjernesund","Norge","4","Norway","7","Norway","true","70.23583300","22.67444400","Norway","Joakko","Finnmark",,"8"
"159TRM","Tromsø","Norge","4","Norway","7","Norway","true","69.65361100","18.96055500","Norway","Tromsø","Troms",,"11"
"159VAD","Vadsøo","Norge","4","Norway","7","Norway","true","70.07638800","29.76694400","Norway","Vadsø","Finnmark",,"11"
"159VAR","Vardø","Norge","4","Norway","7","Norway","true","70.36666600","31.10000000","Norway","Vardø","Finnmark",,"11"
"169NOG","Norge","Norge","4","Norway","7","Norway","true","62.00000000","10.00000000","Norway","Norge","Norge",,"11"
"201ESP","Esbo","Finland","1","The Baltic","8","Sweden and Finland","false","60.20771800","24.39493670","Finland","Espoo","Southern Finland",,"11"
"201HEN","Helsingfors","Finland","1","The Baltic","8","Sweden and Finland","false","60.17555500","24.93416600","Finland","Helsinki","Southern Finland",,"11"
"201RAU","Raumo","Finland","1","The Baltic","8","Sweden and Finland","false","61.13333300","21.50000000","Finland","Rauma","Western Finland",,"11"
"202AAO","Aabo","Finland","1","The Baltic","8","Sweden and Finland","false","60.45000000","22.28333300","Finland","Turku","Western Finland",,"11"
"202EKE","Ekenäs","Finland","1","The Baltic","8","Sweden and Finland","false","59.97398600","23.43409100","Finland","Raseborg","Southern Finland",,"11"
"202FOR","Forsby","Finland","1","The Baltic","8","Sweden and Finland","false","60.50000000","25.93333300","Finland","Forsby","Southern Finland",,"11"
"202NAG","Nagu","Finland","1","The Baltic","8","Sweden and Finland","false","60.19243800","21.90915100","Finland","Nauvo","Western Finland",,"11"
"202SKU","Skuru","Finland","1","The Baltic","8","Sweden and Finland","false","60.09794600","23.54991000","Finland","Skuru","Southern Finland",,"11"
"203ALL","Åland","Finland","1","The Baltic","8","Sweden and Finland","false","60.25000000","20.00000000","Finland","Åland","Åland",,"11"
"203BJR","Bjørneborg","Finland","1","The Baltic","8","Sweden and Finland","false","61.48333300","21.78333300","Finland","Pori","Western Finland",,"11"
"203BOM","Bomarsund","Finland","1","The Baltic","8","Sweden and Finland","false","60.21209000","20.22689250","Finland","Bomarsund","Åland",,"11"
"203BUS","Bussøe","Finland","1","The Baltic","8","Sweden and Finland","false","60.16500000","20.33800000","Finland","Bussø","Åland","Island","11"
"203ECK","Eckerö","Finland","1","The Baltic","8","Sweden and Finland","false","60.21000000","19.57000000","Finland","Eckerö","Åland",,"11"
"204KOS","Koskö","Finland","1","The Baltic","8","Sweden and Finland","false","63.18333300","21.71666600","Finland","Koskö","Western Finland",,"11"
"204RUM","Rumo","Finland","1","The Baltic","8","Sweden and Finland","false","63.81689100","28.58561100","Finland","Rumo","Eastern Finland",,"11"
"204ULE","Uleåborg","Finland","1","The Baltic","8","Sweden and Finland","false","65.01666600","25.46666600","Finland","Oulu","Northern Finland",,"11"
"208MOS","Mostersare","Finland","1","The Baltic","8","Sweden and Finland","false","60.49916600","27.32722200","Finland","Mustasaari","Southern Finland",,"10"
"208TSU","Traangsund","Finland","1","The Baltic","8","Sweden and Finland","false","60.63333300","28.56666600","Russia","Vysotsk","Leningradskaya Oblast’",,"11"
"208VIL","Vilajoki","Finland","1","The Baltic","8","Sweden and Finland","false","60.63000000","28.28000000","Russia","Baltiyets","Leningradskaya Oblast’",,"11"
"208WLK","Wederlaks","Finland","1","The Baltic","8","Sweden and Finland","false","60.58333300","27.66666600","Finland","Virolahti","Southern Finland",,"11"
"209BOO","Borgå","Finland","1","The Baltic","8","Sweden and Finland","false","60.40000000","25.66666600","Finland","Borgå","Southern Finland",,"11"
"209BRH","Brahestad","Finland","1","The Baltic","8","Sweden and Finland","false","64.68333300","24.48333300","Finland","Raahe","Northern Finland",,"11"
"209BRT","Bratteholm","Sverige","1","The Baltic","8","Sweden and Finland","false","60.38722200","21.16638800","Finland","Brattholm","Western Finland",,"11"
"209DEG","Degerby","Finland","1","The Baltic","8","Sweden and Finland","false","60.08500000","24.18722200","Finland","Degerby","Southern Finland",,"11"
"209EKE","Ekenäs","Sverige","1","The Baltic","8","Sweden and Finland","false","56.51174700","16.17830300","Sweden","Ekenäs","Kalmar Län",,"11"
"209FBO","Finnebo","Finland","1","The Baltic","8","Sweden and Finland","false","60.35000000","19.60000000","Finland","Finbo","Åland",,"11"
"209FIK","Fiskars","Finland","1","The Baltic","8","Sweden and Finland","false","60.12972200","23.54277700","Finland","Fiskars","Southern Finland",,"11"
"209FIL","Finland","Finland","1","The Baltic","8","Sweden and Finland","false","64.00000000","26.00000000","Finland","Finland","Finland",,"11"
"209FIS","Fiskerøerne","Finland","1","The Baltic","8","Sweden and Finland","false","60.45083300","21.01694400","Finland","Fiskörarna","Åland",,"11"
"209FSK","Finske Skær","Finland","1","The Baltic","8","Sweden and Finland","false","60.00000000","26.00000000","Finland","Finske Skær","Finland",,"8"
"209HAN","Hanko","Finland","1","The Baltic","8","Sweden and Finland","false","59.83333300","22.95000000","Finland","Hanko","Southern Finland",,"11"
"209HUM","Humaljoki","Finland","1","The Baltic","8","Sweden and Finland","false","60.36666600","28.78333300","Russia","Yermilovo","Leningradskaya Oblast’",,"11"
"209JAK","Jakobsstad","Finland","1","The Baltic","8","Sweden and Finland","false","63.67638800","22.71083300","Finland","Pietarsaari","Western Finland",,"11"
"209JOK","Jokela","Finland","1","The Baltic","8","Sweden and Finland","false","60.55000000","24.98333300","Finland","Jokela","Southern Finland",,"11"
"209KAB","Ny Karleby","Finland","1","The Baltic","8","Sweden and Finland","false","63.52250000","22.53111100","Finland","Nykarleby","Western Finland",,"11"
"209KAE","Gamle Karleby","Finland","1","The Baltic","8","Sweden and Finland","false","63.82916600","23.10944400","Finland","Kokkola","Western Finland",,"11"
"209KAR","Karleby","Finland","1","The Baltic","8","Sweden and Finland","false","63.83333300","23.11666600","Finland","Kokkola","Western Finland",,"11"
"209KAS","Kaskø","Finland","1","The Baltic","8","Sweden and Finland","false","62.38333300","21.23333300","Finland","Kaskö","Western Finland",,"11"
"209KRS","Kristinestad","Finland","1","The Baltic","8","Sweden and Finland","false","62.28333300","21.38333300","Finland","Kristinestad","Western Finland",,"11"
"209LOV","Lovisa","Finland","1","The Baltic","8","Sweden and Finland","false","60.45000000","26.23333300","Finland","Loviisa","Southern Finland",,"11"
"209NYS","Nystad","Finland","1","The Baltic","8","Sweden and Finland","false","60.80000000","21.41666600","Finland","Uusikaupunki","Western Finland",,"11"
"209PEI","Perniö","Finland","1","The Baltic","8","Sweden and Finland","false","60.20000000","23.13333300","Finland","Perniö","Western Finland",,"11"
"209POR","Porkkala","Finland","1","The Baltic","8","Sweden and Finland","false","59.97910000","24.40210000","Finland","Porkkala","Southern Finland",,"10"
"209SFF","Strømfors","Finland","1","The Baltic","8","Sweden and Finland","false","60.49339500","26.73540700","Finland","Pyhtaa","Southern Finland",,"11"
"209SWE","Swæborg","Finland","1","The Baltic","8","Sweden and Finland","false","60.17555500","24.93416600","Finland","Swaeborg Castle","Southern Finland",,"11"
"209TON","Torneå","Sverige","1","The Baltic","8","Sweden and Finland","false","66.38777700","23.65416600","Sweden","Övertorneå","Norrbottens Län",,"11"
"209WAA","Wasa","Finland","1","The Baltic","8","Sweden and Finland","false","63.09583300","21.61555500","Finland","Vaasa","Western Finland",,"11"
"210HOG","Hogdal","Sverige","14","Skagerrak, Kattegat (Denmark, Sweden)","8","Sweden and Finland","true","59.02500000","11.23333300","Sweden","Hogdal","Västra Götalands Län",,"11"
"211GEL","Geffle","Sverige","1","The Baltic","8","Sweden and Finland","false","60.67444400","17.14166600","Sweden","Gävle","Gävleborgs Län",,"11"
"211GRH","Grisslehamn","Sverige","1","The Baltic","8","Sweden and Finland","false","60.09610000","18.81060000","Sweden","Grisslehamn","Stockholms Län",,"11"
"211SAN","Sandviken","Sverige","1","The Baltic","8","Sweden and Finland","false","60.62080000","16.77550000","Sweden","Sandviken","Gävleborgs Län",,"11"
"212RAG","Rågårdsvik","Sverige","14","Skagerrak, Kattegat (Denmark, Sweden)","8","Sweden and Finland","true","58.20000000","11.45000000","Sweden","Rågårdsvik","Västra Götalands Län",,"11"
"213BUA","Bua","Sverige","14","Skagerrak, Kattegat (Denmark, Sweden)","8","Sweden and Finland","true","57.23720000","12.12000000","Sweden","Bua","Hallands Län",,"11"
"213HRK","Harkulle","Sverige","14","Skagerrak, Kattegat (Denmark, Sweden)","8","Sweden and Finland","true","57.41683600","12.00319300","Sweden","Hakulla","Hallands Län",,"11"
"215HOL","Höle","Sverige","1","The Baltic","8","Sweden and Finland","false","61.38333300","16.60000000","Sweden","Höle","Gävleborgs Län",,"11"
"215KVH","Kovikshamn","Sverige","14","Skagerrak, Kattegat (Denmark, Sweden)","8","Sweden and Finland","true","57.83333300","11.68333300","Sweden","Kovikshamn","Västra Götalands Län",,"11"
"216TOR","Torkelstrup","Sverige","14","Skagerrak, Kattegat (Denmark, Sweden)","8","Sweden and Finland","true","57.44222200","12.10333300","Sweden","Torkelstorp","Hallands Län",,"11"
"219AAL","Aalandsoerne","Sverige","1","The Baltic","8","Sweden and Finland","false","60.25000000","20.00000000","Finland","Aland Islands","Åland",,"11"
"219ELF","Elfsborg","Sverige","14","Skagerrak, Kattegat (Denmark, Sweden)","8","Sweden and Finland","true","57.67305500","11.86666600","Sweden","Älvsborg","Västra Götalands Län",,"11"
"219ENO","Enköping","Sverige","1","The Baltic","8","Sweden and Finland","false","59.63583300","17.07750000","Sweden","Enköping","Uppsala Län",,"11"
"219FUR","Furusund","Sverige","1","The Baltic","8","Sweden and Finland","false","59.66638800","18.92250000","Sweden","Furusund","Stockholms Län",,"11"
"219HAK","Haknas","Sverige","1","The Baltic","8","Sweden and Finland","false","63.57241600","19.66537600","Sweden","Håknäs","Västerbottens Län",,"11"
"219HEV","Härnösand","Sverige","1","The Baltic","8","Sweden and Finland","false","62.63222200","17.93777700","Sweden","Härnösand","Västernorrlands Län",,"11"
"219HOS","Holmsund","Sverige","1","The Baltic","8","Sweden and Finland","false","63.70708400","20.35842500","Sweden","Holmsund","Västerbottens Län",,"11"
"219HUD","Hudiksvall","Sverige","1","The Baltic","8","Sweden and Finland","false","61.72888800","17.10333300","Sweden","Hudiksvall","Gävleborgs Län",,"11"
"219HUS","Husom","Sverige","1","The Baltic","8","Sweden and Finland","false","63.33436800","19.13735500","Sweden","Husum (S)","Västernorrlands Län",,"11"
"219KRA","Kramfors","Sverige","1","The Baltic","8","Sweden and Finland","false","62.93178100","17.82417200","Sweden","Kramfors","Västernorrlands Län",,"11"
"219LJU","Ljusne","Sverige","1","The Baltic","8","Sweden and Finland","false","61.20909900","17.12767700","Sweden","Ljusne","Gävleborgs Län",,"11"
"219LUL","Luleå","Sverige","1","The Baltic","8","Sweden and Finland","false","65.58388800","22.15444400","Sweden","Luleå","Norrbottens Län",,"11"
"219NTL","Nyland","Sverige","1","The Baltic","8","Sweden and Finland","false","64.81666600","20.76666600","Sweden","Nyland","Västerbottens Län",,"11"
"219OER","Öregrund","Sverige","1","The Baltic","8","Sweden and Finland","false","60.33333300","18.43333300","Sweden","Öregrund","Uppsala Län",,"11"
"219OLO","Olofsfors","Sverige","1","The Baltic","8","Sweden and Finland","false","63.58255370","19.45772500","Sweden","Olofsfors","Västernorrlands Län",,"11"
"219ORN","Örnsköldsvik","Sverige","1","The Baltic","8","Sweden and Finland","false","63.28870000","18.71600000","Sweden","Örnsköldsvik","Västernorrlands Län",,"11"
"219PIT","Piteå","Sverige","1","The Baltic","8","Sweden and Finland","false","65.31694400","21.47944400","Sweden","Piteå","Norrbottens Län",,"11"
"219RAN","Råneå","Sverige","1","The Baltic","8","Sweden and Finland","false","65.85632800","22.28612900","Sweden","Råneå","Norrbottens Län",,"11"
